{
"type": "FeatureCollection",
"name": "substance_use",
"crs": { "type": "name", "properties": { "name": "urn:ogc:def:crs:OGC:1.3:CRS84" } },
"features": [
{ "type": "Feature", "properties": { "Name": "New Leaf Recovery and Wellness", "Address": "1129 West Lexington Avenue, Winchester, KY 40391", "county": "Clark", "website": "http:\/\/newleafrecoveryandwellness.com", "latitude": 38.0013163, "longitude": -84.1991187, "facility type": "Substance Use Treatment" }, "geometry": { "type": "Point", "coordinates": [ -84.1991187, 38.0013163 ] } },
{ "type": "Feature", "properties": { "Name": "DUI Programs", "Address": "306 North Main Street, Winchester, KY 40391", "county": "Clark", "website": "http:\/\/www.DUI Programs.com", "latitude": 38.000338, "longitude": -84.1738875, "facility type": "Substance Use Treatment" }, "geometry": { "type": "Point", "coordinates": [ -84.1738875, 38.000338 ] } },
{ "type": "Feature", "properties": { "Name": "Kentucky Addiction Centers LLC", "Address": "625 Tech Drive, Suite B, Winchester, KY 40391", "county": "Clark", "website": "http:\/\/www.kentuckyaddictioncenters.com", "latitude": 38.0120007, "longitude": -84.182283, "facility type": "Substance Use Treatment" }, "geometry": { "type": "Point", "coordinates": [ -84.182283, 38.0120007 ] } },
{ "type": "Feature", "properties": { "Name": "Necco Inc", "Address": "503 Darby Creek Road, Lexington, KY 40509", "county": "Fayette", "website": "http:\/\/www.necco.org", "latitude": 38.0076084, "longitude": -84.4318523, "facility type": "Substance Use Treatment" }, "geometry": { "type": "Point", "coordinates": [ -84.4318523, 38.0076084 ] } },
{ "type": "Feature", "properties": { "Name": "Van Hoose and Associates", "Address": "501 Darby Creek Road, Suite 3, Lexington, KY 40509", "county": "Fayette", "website": "http:\/\/www.vanhoosecounselors.com", "latitude": 38.008075, "longitude": -84.432217, "facility type": "Substance Use Treatment" }, "geometry": { "type": "Point", "coordinates": [ -84.432217, 38.008075 ] } },
{ "type": "Feature", "properties": { "Name": "Balanced Life Solutions", "Address": "501 Darby Creek Road, Suite 11, Lexington, KY 40509", "county": "Fayette", "website": "http:\/\/www.duilexingtonky.com", "latitude": 38.0079063, "longitude": -84.4332441, "facility type": "Substance Use Treatment" }, "geometry": { "type": "Point", "coordinates": [ -84.4332441, 38.0079063 ] } },
{ "type": "Feature", "properties": { "Name": "Ridge Behavioral Health System", "Address": "3050 Rio Dosa Drive, Lexington, KY 40509", "county": "Fayette", "website": "http:\/\/www.ridgebhs.com", "latitude": 38.004533, "longitude": -84.442675, "facility type": "Substance Use Treatment" }, "geometry": { "type": "Point", "coordinates": [ -84.442675, 38.004533 ] } },
{ "type": "Feature", "properties": { "Name": "KVC Behavioral Healthcare Kentucky", "Address": "2250 Thunderstick Drive, Suite 1104, Lexington, KY 40505", "county": "Fayette", "website": "http:\/\/www.kvckentucky.org", "latitude": 38.0436309, "longitude": -84.4260882, "facility type": "Substance Use Treatment" }, "geometry": { "type": "Point", "coordinates": [ -84.4260882, 38.0436309 ] } },
{ "type": "Feature", "properties": { "Name": "DUI Consultants", "Address": "3499 Lansdowne Drive, Lexington, KY 40517", "county": "Fayette", "website": "http:\/\/", "latitude": 37.988615, "longitude": -84.514853, "facility type": "Substance Use Treatment" }, "geometry": { "type": "Point", "coordinates": [ -84.514853, 37.988615 ] } },
{ "type": "Feature", "properties": { "Name": "Jessamine DUI and SA Program", "Address": "202 Edgewood Drive, Nicholasville, KY 40356", "county": "Jessamine", "website": "http:\/\/www.JessamineDUI.com", "latitude": 37.8682406, "longitude": -84.5788735, "facility type": "Substance Use Treatment" }, "geometry": { "type": "Point", "coordinates": [ -84.5788735, 37.8682406 ] } },
{ "type": "Feature", "properties": { "Name": "Nolan Inc", "Address": "2401 Regency Road, Suite 102, Lexington, KY 40503", "county": "Fayette", "website": "http:\/\/", "latitude": 38.005163, "longitude": -84.5253368, "facility type": "Substance Use Treatment" }, "geometry": { "type": "Point", "coordinates": [ -84.5253368, 38.005163 ] } },
{ "type": "Feature", "properties": { "Name": "Counseling Association of Lexington", "Address": "274 Southland Drive, Suite 204, Lexington, KY 40503", "county": "Fayette", "website": "http:\/\/www.counseling-assoc.com", "latitude": 38.01464726, "longitude": -84.52205419000001, "facility type": "Substance Use Treatment" }, "geometry": { "type": "Point", "coordinates": [ -84.52205419, 38.01464726 ] } },
{ "type": "Feature", "properties": { "Name": "Alteri LLC", "Address": "1517 Nicholasville Road, Suite 402, Lexington, KY 40503", "county": "Fayette", "website": "http:\/\/www.alterilex.com", "latitude": 38.0241316, "longitude": -84.5128241, "facility type": "Substance Use Treatment" }, "geometry": { "type": "Point", "coordinates": [ -84.5128241, 38.0241316 ] } },
{ "type": "Feature", "properties": { "Name": "Shepherds House Inc", "Address": "635 Maxwelton Court, Lexington, KY 40508", "county": "Fayette", "website": "http:\/\/www.shepherdshouseinc.com", "latitude": 38.036804, "longitude": -84.5092535, "facility type": "Substance Use Treatment" }, "geometry": { "type": "Point", "coordinates": [ -84.5092535, 38.036804 ] } },
{ "type": "Feature", "properties": { "Name": "New Life Counseling Services", "Address": "389 Waller Avenue, Suites 200 and 220, Lexington, KY 40504", "county": "Fayette", "website": "http:\/\/www.counselingky-newlife.com", "latitude": 38.0307601, "longitude": -84.5194145, "facility type": "Substance Use Treatment" }, "geometry": { "type": "Point", "coordinates": [ -84.5194145, 38.0307601 ] } },
{ "type": "Feature", "properties": { "Name": "Cleanse Clinic", "Address": "351 Burley Avenue, Suite 100, Lexington, KY 40503", "county": "Fayette", "website": "http:\/\/thecleanseclinic.com", "latitude": 38.035709, "longitude": -84.518279, "facility type": "Substance Use Treatment" }, "geometry": { "type": "Point", "coordinates": [ -84.518279, 38.035709 ] } },
{ "type": "Feature", "properties": { "Name": "Kentucky Cleanse Clinic", "Address": "351 Barley Avenue, Suite 100, Lexington, KY 40503", "county": "Fayette", "website": "http:\/\/www.thecleanseclinic.com", "latitude": 38.035709, "longitude": -84.518279, "facility type": "Substance Use Treatment" }, "geometry": { "type": "Point", "coordinates": [ -84.518279, 38.035709 ] } },
{ "type": "Feature", "properties": { "Name": "Addiction Treatment Centers", "Address": "1736 Alexandria Drive, Suite 225, Lexington, KY 40504", "county": "Fayette", "website": "http:\/\/addictionky.com\/", "latitude": 38.039536, "longitude": -84.55168, "facility type": "Substance Use Treatment" }, "geometry": { "type": "Point", "coordinates": [ -84.55168, 38.039536 ] } },
{ "type": "Feature", "properties": { "Name": "Gateway Substance Abuse Trt Services", "Address": "37 North Maysville Street, Mount Sterling, KY 40353", "county": "Montgomery", "website": "http:\/\/", "latitude": 38.0571817, "longitude": -83.9418174, "facility type": "Substance Use Treatment" }, "geometry": { "type": "Point", "coordinates": [ -83.9418174, 38.0571817 ] } },
{ "type": "Feature", "properties": { "Name": "Shepherds Shelter\/Ross Rehab", "Address": "236 Bridget Drive, Mount Sterling, KY 40353", "county": "Montgomery", "website": "http:\/\/www.shepherdsshelter.com", "latitude": 38.0524019, "longitude": -83.9307112, "facility type": "Substance Use Treatment" }, "geometry": { "type": "Point", "coordinates": [ -83.9307112, 38.0524019 ] } },
{ "type": "Feature", "properties": { "Name": "Cumberland River Behavioral Health", "Address": "1348 Highway 421 North, McKee, KY 40447", "county": "Jackson", "website": "http:\/\/www.crbhky.org", "latitude": 37.4954323, "longitude": -84.1509446, "facility type": "Substance Use Treatment" }, "geometry": { "type": "Point", "coordinates": [ -84.1509446, 37.4954323 ] } },
{ "type": "Feature", "properties": { "Name": "Nile Addiction Recovery Treatment", "Address": "4185 Lexington Road, Versailles, KY 40383", "county": "Woodford", "website": "http:\/\/www.nile-art.com", "latitude": 38.0441076, "longitude": -84.6545666, "facility type": "Substance Use Treatment" }, "geometry": { "type": "Point", "coordinates": [ -84.6545666, 38.0441076 ] } },
{ "type": "Feature", "properties": { "Name": "Trainings Unlimited", "Address": "2 East 4th Street, Paris, KY 40361", "county": "Bourbon", "website": "http:\/\/www.trainingsunlimited.com", "latitude": 38.2118605, "longitude": -84.2488376, "facility type": "Substance Use Treatment" }, "geometry": { "type": "Point", "coordinates": [ -84.2488376, 38.2118605 ] } },
{ "type": "Feature", "properties": { "Name": "Renew Recovery LLC", "Address": "1154 Lexington Road, Suite A, Georgetown, KY 40324", "county": "Scott", "website": "http:\/\/www.renewrecovery.com\/", "latitude": 38.1861069, "longitude": -84.5623955, "facility type": "Substance Use Treatment" }, "geometry": { "type": "Point", "coordinates": [ -84.5623955, 38.1861069 ] } },
{ "type": "Feature", "properties": { "Name": "Crossroads Counseling Services Inc", "Address": "1236 Paris Pike, Georgetown, KY 40324", "county": "Scott", "website": "http:\/\/www.crossroadscounselingky.com\/", "latitude": 38.2136218, "longitude": -84.5436782, "facility type": "Substance Use Treatment" }, "geometry": { "type": "Point", "coordinates": [ -84.5436782, 38.2136218 ] } },
{ "type": "Feature", "properties": { "Name": "Miles of Hope Counseling Center LLC", "Address": "107 North 2nd Street, Stanford, KY 40484", "county": "Lincoln", "website": "http:\/\/", "latitude": 37.5301371, "longitude": -84.660479, "facility type": "Substance Use Treatment" }, "geometry": { "type": "Point", "coordinates": [ -84.660479, 37.5301371 ] } },
{ "type": "Feature", "properties": { "Name": "Counseling Associates", "Address": "203 Champion Way, Suite 7, Georgetown, KY 40324", "county": "Scott", "website": "http:\/\/www.counseling\/assoc.com", "latitude": 38.2219682, "longitude": -84.5431765, "facility type": "Substance Use Treatment" }, "geometry": { "type": "Point", "coordinates": [ -84.5431765, 38.2219682 ] } },
{ "type": "Feature", "properties": { "Name": "Central Kentucky Addiction Treatment", "Address": "128 Daniel Drive, Danville, KY 40422", "county": "Boyle", "website": "http:\/\/centralkyaddiction.com", "latitude": 37.620206, "longitude": -84.763374, "facility type": "Substance Use Treatment" }, "geometry": { "type": "Point", "coordinates": [ -84.763374, 37.620206 ] } },
{ "type": "Feature", "properties": { "Name": "Spero Health", "Address": "106 Belinda Boulevard, Suite 100, Danville, KY 40422", "county": "Boyle", "website": "http:\/\/sperohealth.com\/", "latitude": 37.6183296, "longitude": -84.7854435, "facility type": "Substance Use Treatment" }, "geometry": { "type": "Point", "coordinates": [ -84.7854435, 37.6183296 ] } },
{ "type": "Feature", "properties": { "Name": "Counseling of the Bluegrass", "Address": "419 Main Street, Paris, KY 40361", "county": "Bourbon", "website": "http:\/\/counselingbg.com", "latitude": 38.3003688, "longitude": -84.1495429, "facility type": "Substance Use Treatment" }, "geometry": { "type": "Point", "coordinates": [ -84.1495429, 38.3003688 ] } },
{ "type": "Feature", "properties": { "Name": "Cumberland River Behavioral Health", "Address": "260 Old U.S. 25 South, Mount Vernon, KY 40456", "county": "Rockcastle", "website": "http:\/\/www.crbhky.org", "latitude": 37.352339, "longitude": -84.329458, "facility type": "Substance Use Treatment" }, "geometry": { "type": "Point", "coordinates": [ -84.329458, 37.352339 ] } },
{ "type": "Feature", "properties": { "Name": "Spero Health", "Address": "251 Democrat Drive, Frankfort, KY 40601", "county": "Franklin", "website": "http:\/\/sperohealth.com\/", "latitude": 38.1713135, "longitude": -84.8156894, "facility type": "Substance Use Treatment" }, "geometry": { "type": "Point", "coordinates": [ -84.8156894, 38.1713135 ] } },
{ "type": "Feature", "properties": { "Name": "Brooks DUI and Substance Abuse Servs", "Address": "111 North Main Street, Cynthiana, KY 41031", "county": "Harrison", "website": "http:\/\/", "latitude": 38.3894792, "longitude": -84.2979428, "facility type": "Substance Use Treatment" }, "geometry": { "type": "Point", "coordinates": [ -84.2979428, 38.3894792 ] } },
{ "type": "Feature", "properties": { "Name": "Deborah Spicer LCSW LCADC", "Address": "111 North Main Street, Cynthiana, KY 41031", "county": "Harrison", "website": "http:\/\/", "latitude": 38.3911802, "longitude": -84.2974497, "facility type": "Substance Use Treatment" }, "geometry": { "type": "Point", "coordinates": [ -84.2974497, 38.3911802 ] } },
{ "type": "Feature", "properties": { "Name": "TAG Healing Center", "Address": "83 C Michael Davenport Boulevard, Frankfort, KY 40601", "county": "Franklin", "website": "http:\/\/tagcounselingrecovery.com", "latitude": 38.1601903, "longitude": -84.9153704, "facility type": "Substance Use Treatment" }, "geometry": { "type": "Point", "coordinates": [ -84.9153704, 38.1601903 ] } },
{ "type": "Feature", "properties": { "Name": "Infinity Center of Frankfort LLC", "Address": "83 C Michael Davenport Boulevard, Suite C, Frankfort, KY 40601", "county": "Franklin", "website": "http:\/\/www.infctr.com\/", "latitude": 38.1602239, "longitude": -84.9153549, "facility type": "Substance Use Treatment" }, "geometry": { "type": "Point", "coordinates": [ -84.9153549, 38.1602239 ] } },
{ "type": "Feature", "properties": { "Name": "Renew Recovery", "Address": "2645 North Laurel Road, Suite B, London, KY 40741", "county": "Laurel", "website": "http:\/\/www.renewrecovery.com\/", "latitude": 37.1741974, "longitude": -84.1270633, "facility type": "Substance Use Treatment" }, "geometry": { "type": "Point", "coordinates": [ -84.1270633, 37.1741974 ] } },
{ "type": "Feature", "properties": { "Name": "COMPASS Adolescent Resid Trt Program", "Address": "225 North Laurel Road, London, KY 40741", "county": "Laurel", "website": "http:\/\/www.crbhky.org", "latitude": 37.1699735, "longitude": -84.1226982, "facility type": "Substance Use Treatment" }, "geometry": { "type": "Point", "coordinates": [ -84.1226982, 37.1699735 ] } },
{ "type": "Feature", "properties": { "Name": "Isaiah House", "Address": "2084 Main Street, Willisburg, KY 40078", "county": "Washington", "website": "http:\/\/www.isaiah-house.org", "latitude": 37.8073428, "longitude": -85.1309596, "facility type": "Substance Use Treatment" }, "geometry": { "type": "Point", "coordinates": [ -85.1309596, 37.8073428 ] } },
{ "type": "Feature", "properties": { "Name": "Patricias Place", "Address": "2042 Main Street, Willisburg, KY 40078", "county": "Washington", "website": "http:\/\/www.isaiah-house.org\/", "latitude": 37.8075769, "longitude": -85.1310699, "facility type": "Substance Use Treatment" }, "geometry": { "type": "Point", "coordinates": [ -85.1310699, 37.8075769 ] } },
{ "type": "Feature", "properties": { "Name": "Cumberland River Behavioral Health", "Address": "915 North Laurel Road, Pittsburg, KY 40755", "county": "Laurel", "website": "http:\/\/www.crbhky.org", "latitude": 37.1562572, "longitude": -84.1047306, "facility type": "Substance Use Treatment" }, "geometry": { "type": "Point", "coordinates": [ -84.1047306, 37.1562572 ] } },
{ "type": "Feature", "properties": { "Name": "Spero Health", "Address": "505 Hecks Plaza, Morehead, KY 40351", "county": "Rowan", "website": "http:\/\/sperohealth.com\/", "latitude": 38.1910187, "longitude": -83.4751491, "facility type": "Substance Use Treatment" }, "geometry": { "type": "Point", "coordinates": [ -83.4751491, 38.1910187 ] } },
{ "type": "Feature", "properties": { "Name": "A Center 4 Change", "Address": "150 New Towne Square, Suite 7, Morehead, KY 40351", "county": "Rowan", "website": "http:\/\/www.acenter4change.com", "latitude": 38.1753503, "longitude": -83.4345627, "facility type": "Substance Use Treatment" }, "geometry": { "type": "Point", "coordinates": [ -83.4345627, 38.1753503 ] } },
{ "type": "Feature", "properties": { "Name": "Family Healing Center Inc", "Address": "241 East Main Street, The Blair Building, Morehead, KY 40351", "county": "Rowan", "website": "http:\/\/", "latitude": 38.1851613, "longitude": -83.4328546, "facility type": "Substance Use Treatment" }, "geometry": { "type": "Point", "coordinates": [ -83.4328546, 38.1851613 ] } },
{ "type": "Feature", "properties": { "Name": "Communicare Inc", "Address": "24 East Main Street, Springfield, KY 40069", "county": "Washington", "website": "http:\/\/www.communicare.org", "latitude": 37.6849416, "longitude": -85.2217526, "facility type": "Substance Use Treatment" }, "geometry": { "type": "Point", "coordinates": [ -85.2217526, 37.6849416 ] } },
{ "type": "Feature", "properties": { "Name": "Windows of Discovery Inc", "Address": "650 North Main Street, Suite 224, Somerset, KY 42501", "county": "Pulaski", "website": "http:\/\/windowsofdiscovery.net", "latitude": 37.1001359, "longitude": -84.6082518, "facility type": "Substance Use Treatment" }, "geometry": { "type": "Point", "coordinates": [ -84.6082518, 37.1001359 ] } },
{ "type": "Feature", "properties": { "Name": "Bouncing Back Counseling Inc", "Address": "86 Kentucky 638, Suite 1, Manchester, KY 40962", "county": "Clay", "website": "http:\/\/", "latitude": 37.1604297, "longitude": -83.7694473, "facility type": "Substance Use Treatment" }, "geometry": { "type": "Point", "coordinates": [ -83.7694473, 37.1604297 ] } },
{ "type": "Feature", "properties": { "Name": "Monarch Counseling Center LLC", "Address": "1005 West Columbia Street, Suite C, Somerset, KY 42503", "county": "Pulaski", "website": "http:\/\/", "latitude": 37.089746, "longitude": -84.6197247, "facility type": "Substance Use Treatment" }, "geometry": { "type": "Point", "coordinates": [ -84.6197247, 37.089746 ] } },
{ "type": "Feature", "properties": { "Name": "Cumberland River Behavioral Health", "Address": "565 Muddy Gap Road, Manchester, KY 40962", "county": "Clay", "website": "http:\/\/www.crbhky.org", "latitude": 37.141366, "longitude": -83.772422, "facility type": "Substance Use Treatment" }, "geometry": { "type": "Point", "coordinates": [ -83.772422, 37.141366 ] } },
{ "type": "Feature", "properties": { "Name": "Spero Health", "Address": "349 Bogle Street, Suite B, Somerset, KY 42503", "county": "Pulaski", "website": "http:\/\/sperohealth.com\/", "latitude": 37.0843006, "longitude": -84.6223208, "facility type": "Substance Use Treatment" }, "geometry": { "type": "Point", "coordinates": [ -84.6223208, 37.0843006 ] } },
{ "type": "Feature", "properties": { "Name": "True to You Counseling Services LLC", "Address": "298 Bogle Street, Suite A, Somerset, KY 42503", "county": "Pulaski", "website": "http:\/\/", "latitude": 37.0826216, "longitude": -84.6206447, "facility type": "Substance Use Treatment" }, "geometry": { "type": "Point", "coordinates": [ -84.6206447, 37.0826216 ] } },
{ "type": "Feature", "properties": { "Name": "Communicare Inc", "Address": "65 Old Springfield Road, Suite 2, Lebanon, KY 40033", "county": "Marion", "website": "http:\/\/www.communicare.org", "latitude": 37.589456, "longitude": -85.251063, "facility type": "Substance Use Treatment" }, "geometry": { "type": "Point", "coordinates": [ -85.251063, 37.589456 ] } },
{ "type": "Feature", "properties": { "Name": "Caldwell Counseling Services LLC", "Address": "114 North Spalding Avenue, Lebanon, KY 40033", "county": "Marion", "website": "http:\/\/", "latitude": 37.5703841, "longitude": -85.2529938, "facility type": "Substance Use Treatment" }, "geometry": { "type": "Point", "coordinates": [ -85.2529938, 37.5703841 ] } },
{ "type": "Feature", "properties": { "Name": "Lanham Counseling and Therapy", "Address": "27 Court Square, Lebanon, KY 40033", "county": "Marion", "website": "http:\/\/therapists.psychologytoday.com", "latitude": 37.5696454, "longitude": -85.2527911, "facility type": "Substance Use Treatment" }, "geometry": { "type": "Point", "coordinates": [ -85.2527911, 37.5696454 ] } },
{ "type": "Feature", "properties": { "Name": "Specialized Alternatives for Families", "Address": "3540 South Highway 27, Suite 4, Somerset, KY 42501", "county": "Pulaski", "website": "http:\/\/www.safy.org", "latitude": 37.0587095, "longitude": -84.6226226, "facility type": "Substance Use Treatment" }, "geometry": { "type": "Point", "coordinates": [ -84.6226226, 37.0587095 ] } },
{ "type": "Feature", "properties": { "Name": "Necco Inc", "Address": "4341 South Highway 27, Somerset, KY 42501", "county": "Pulaski", "website": "http:\/\/www.necco.org", "latitude": 37.0325454, "longitude": -84.6280989, "facility type": "Substance Use Treatment" }, "geometry": { "type": "Point", "coordinates": [ -84.6280989, 37.0325454 ] } },
{ "type": "Feature", "properties": { "Name": "Comprehend Inc", "Address": "134 Grandview Drive, Brooksville, KY 41004", "county": "Bracken", "website": "http:\/\/www.comprehendinc.org", "latitude": 38.6792874, "longitude": -84.058024, "facility type": "Substance Use Treatment" }, "geometry": { "type": "Point", "coordinates": [ -84.058024, 38.6792874 ] } },
{ "type": "Feature", "properties": { "Name": "Cumberland River Behavioral Health", "Address": "1203 American Greeting Road, Corbin, KY 40702", "county": "Whitley", "website": "http:\/\/www.crbhky.org", "latitude": 36.9804402, "longitude": -84.0894295, "facility type": "Substance Use Treatment" }, "geometry": { "type": "Point", "coordinates": [ -84.0894295, 36.9804402 ] } },
{ "type": "Feature", "properties": { "Name": "New Hope Community Services", "Address": "901 Highway 68, Suite 900, Maysville, KY 41056", "county": "Mason", "website": "http:\/\/nhcs-ky.com", "latitude": 38.6436099, "longitude": -83.780204, "facility type": "Substance Use Treatment" }, "geometry": { "type": "Point", "coordinates": [ -83.780204, 38.6436099 ] } },
{ "type": "Feature", "properties": { "Name": "BHG Corbin Treatment Center", "Address": "967 U.S. Highway 25 West, Corbin, KY 40701", "county": "Whitley", "website": "http:\/\/www.bhgrecovery.com", "latitude": 36.9558744, "longitude": -84.0947018, "facility type": "Substance Use Treatment" }, "geometry": { "type": "Point", "coordinates": [ -84.0947018, 36.9558744 ] } },
{ "type": "Feature", "properties": { "Name": "Comprehend Inc", "Address": "611 Forest Avenue, Maysville, KY 41056", "county": "Mason", "website": "http:\/\/www.comprehendinc.org", "latitude": 38.6422187, "longitude": -83.7514859, "facility type": "Substance Use Treatment" }, "geometry": { "type": "Point", "coordinates": [ -83.7514859, 38.6422187 ] } },
{ "type": "Feature", "properties": { "Name": "Jackson Behavioral Hlth Professionals", "Address": "1707 Falls Highway, Suite 2, Corbin, KY 40701", "county": "Whitley", "website": "http:\/\/", "latitude": 36.94613, "longitude": -84.097929, "facility type": "Substance Use Treatment" }, "geometry": { "type": "Point", "coordinates": [ -84.097929, 36.94613 ] } },
{ "type": "Feature", "properties": { "Name": "Communicare Inc", "Address": "333 South 3rd Street, Bardstown, KY 40004", "county": "Nelson", "website": "http:\/\/www.communicare.org", "latitude": 37.8040689, "longitude": -85.4677169, "facility type": "Substance Use Treatment" }, "geometry": { "type": "Point", "coordinates": [ -85.4677169, 37.8040689 ] } },
{ "type": "Feature", "properties": { "Name": "REACH Program LLC", "Address": "120 West Stephen Foster Avenue, Suite 113, Bardstown, KY 40004", "county": "Nelson", "website": "http:\/\/", "latitude": 37.8096413, "longitude": -85.4682555, "facility type": "Substance Use Treatment" }, "geometry": { "type": "Point", "coordinates": [ -85.4682555, 37.8096413 ] } },
{ "type": "Feature", "properties": { "Name": "Kentucky River Community Care Inc", "Address": "91 Little Grapevine Creek Road, Hazard, KY 41701", "county": "Perry", "website": "http:\/\/www.krcccares.com", "latitude": 37.3315054, "longitude": -83.25062813, "facility type": "Substance Use Treatment" }, "geometry": { "type": "Point", "coordinates": [ -83.25062813, 37.3315054 ] } },
{ "type": "Feature", "properties": { "Name": "Counseling Associates", "Address": "1320 East Broadway Street, Suite D, Campbellsville, KY 42718", "county": "Taylor", "website": "http:\/\/", "latitude": 37.351706, "longitude": -85.331391, "facility type": "Substance Use Treatment" }, "geometry": { "type": "Point", "coordinates": [ -85.331391, 37.351706 ] } },
{ "type": "Feature", "properties": { "Name": "Spero Health", "Address": "277 Roy Campbell Drive, Hazard, KY 41701", "county": "Perry", "website": "http:\/\/www.sperohealth.com", "latitude": 37.2718457, "longitude": -83.231752, "facility type": "Substance Use Treatment" }, "geometry": { "type": "Point", "coordinates": [ -83.231752, 37.2718457 ] } },
{ "type": "Feature", "properties": { "Name": "Bingham Behavioral Health", "Address": "417 Knox Street, Suite 3, Barbourville, KY 40906", "county": "Knox", "website": "http:\/\/", "latitude": 36.868326, "longitude": -83.882969, "facility type": "Substance Use Treatment" }, "geometry": { "type": "Point", "coordinates": [ -83.882969, 36.868326 ] } },
{ "type": "Feature", "properties": { "Name": "Cumberland River Behavioral Health", "Address": "704 Pitzer Street, Barbourville, KY 40906", "county": "Knox", "website": "http:\/\/www.crbhky.org", "latitude": 36.8574523, "longitude": -83.8981752, "facility type": "Substance Use Treatment" }, "geometry": { "type": "Point", "coordinates": [ -83.8981752, 36.8574523 ] } },
{ "type": "Feature", "properties": { "Name": "Spero Health", "Address": "415 State Highway 225 , Barbourville, KY 40906", "county": "Knox", "website": "http:\/\/www.sperohealth.com", "latitude": 36.8517445, "longitude": -83.8742775, "facility type": "Substance Use Treatment" }, "geometry": { "type": "Point", "coordinates": [ -83.8742775, 36.8517445 ] } },
{ "type": "Feature", "properties": { "Name": "Creative Spirits Behav Service Network", "Address": "12730 Towne Parkway, Suite 201, Louisville, KY 40243", "county": "Jefferson", "website": "http:\/\/www.creativespiritsonline.com", "latitude": 38.24244822, "longitude": -85.51936984, "facility type": "Substance Use Treatment" }, "geometry": { "type": "Point", "coordinates": [ -85.51936984, 38.24244822 ] } },
{ "type": "Feature", "properties": { "Name": "Cumberland River Behavioral Health", "Address": "285 Cemetery Road, Williamsburg, KY 40769", "county": "Whitley", "website": "http:\/\/www.crbhky.org", "latitude": 36.748788, "longitude": -84.159583, "facility type": "Substance Use Treatment" }, "geometry": { "type": "Point", "coordinates": [ -84.159583, 36.748788 ] } },
{ "type": "Feature", "properties": { "Name": "AA and Associates of Kentucky", "Address": "402 Main Street, Carrollton, KY 41008", "county": "Carroll", "website": "http:\/\/aa&associates.com", "latitude": 38.6822788, "longitude": -85.1817763, "facility type": "Substance Use Treatment" }, "geometry": { "type": "Point", "coordinates": [ -85.1817763, 38.6822788 ] } },
{ "type": "Feature", "properties": { "Name": "Spero Health", "Address": "341 Office Park Drive, Columbia, KY 42728", "county": "Adair", "website": "http:\/\/www.sperohealth.com", "latitude": 37.0947307, "longitude": -85.3035113, "facility type": "Substance Use Treatment" }, "geometry": { "type": "Point", "coordinates": [ -85.3035113, 37.0947307 ] } },
{ "type": "Feature", "properties": { "Name": "Lighted Way Counseling Services", "Address": "5510 North Preston Highway, Shepherdsville, KY 40165", "county": "Bullitt", "website": "http:\/\/", "latitude": 38.0595387, "longitude": -85.6717597, "facility type": "Substance Use Treatment" }, "geometry": { "type": "Point", "coordinates": [ -85.6717597, 38.0595387 ] } },
{ "type": "Feature", "properties": { "Name": "Necco Inc", "Address": "3101 Breckenridge Lane, Louisville, KY 40220", "county": "Jefferson", "website": "http:\/\/necco.org", "latitude": 38.2123478, "longitude": -85.6274859, "facility type": "Substance Use Treatment" }, "geometry": { "type": "Point", "coordinates": [ -85.6274859, 38.2123478 ] } },
{ "type": "Feature", "properties": { "Name": "Nulease Medical Solutions", "Address": "5722 Outer Loop, Louisville, KY 40219", "county": "Jefferson", "website": "http:\/\/www.nulease.com", "latitude": 38.138822, "longitude": -85.6556708, "facility type": "Substance Use Treatment" }, "geometry": { "type": "Point", "coordinates": [ -85.6556708, 38.138822 ] } },
{ "type": "Feature", "properties": { "Name": "A A and Associates of Kentucky", "Address": "3038 Breckenridge Lane, Suite 204, Louisville, KY 40220", "county": "Jefferson", "website": "http:\/\/aaandassociateky.com", "latitude": 38.214935, "longitude": -85.6281998, "facility type": "Substance Use Treatment" }, "geometry": { "type": "Point", "coordinates": [ -85.6281998, 38.214935 ] } },
{ "type": "Feature", "properties": { "Name": "Center for Behavioral Health Inc", "Address": "1402 Browns Lane, Suite A, Louisville, KY 40207", "county": "Jefferson", "website": "http:\/\/www.centerforbehavioralhealth.com", "latitude": 38.2357035, "longitude": -85.6295748, "facility type": "Substance Use Treatment" }, "geometry": { "type": "Point", "coordinates": [ -85.6295748, 38.2357035 ] } },
{ "type": "Feature", "properties": { "Name": "REACH Program LLC", "Address": "841 Old Preston Highway South, Shepherdsville, KY 40165", "county": "Bullitt", "website": "http:\/\/", "latitude": 37.9746358, "longitude": -85.7104217, "facility type": "Substance Use Treatment" }, "geometry": { "type": "Point", "coordinates": [ -85.7104217, 37.9746358 ] } },
{ "type": "Feature", "properties": { "Name": "A Center 4 Change", "Address": "204 South Carol Malone Boulevard, Grayson, KY 41143", "county": "Carter", "website": "http:\/\/www.acenter4change.com", "latitude": 38.329382, "longitude": -82.9460806, "facility type": "Substance Use Treatment" }, "geometry": { "type": "Point", "coordinates": [ -82.9460806, 38.329382 ] } },
{ "type": "Feature", "properties": { "Name": "Kentucky Driving School", "Address": "3715 Bardstown Road, Suite 410, Louisville, KY 40218", "county": "Jefferson", "website": "http:\/\/www.kydrivingschool.com\/", "latitude": 38.1988929, "longitude": -85.6584985, "facility type": "Substance Use Treatment" }, "geometry": { "type": "Point", "coordinates": [ -85.6584985, 38.1988929 ] } },
{ "type": "Feature", "properties": { "Name": "Miller Counseling LLC", "Address": "341 South Buckman Street, P.O. Box 547, Shepherdsville, KY 40165", "county": "Bullitt", "website": "http:\/\/", "latitude": 37.987434, "longitude": -85.716926, "facility type": "Substance Use Treatment" }, "geometry": { "type": "Point", "coordinates": [ -85.716926, 37.987434 ] } },
{ "type": "Feature", "properties": { "Name": "Landmark Recovery of Louisville", "Address": "4112 Fern Valley Road, Louisville, KY 40219", "county": "Jefferson", "website": "http:\/\/www.landmarkrecovery.com", "latitude": 38.1561506, "longitude": -85.6842972, "facility type": "Substance Use Treatment" }, "geometry": { "type": "Point", "coordinates": [ -85.6842972, 38.1561506 ] } },
{ "type": "Feature", "properties": { "Name": "Gratetful Life Center", "Address": "305 Pleasure Isle Drive, Fort Mitchell, KY 41017", "county": "Kenton", "website": "http:\/\/transitionsky.org", "latitude": 38.98664, "longitude": -84.536407, "facility type": "Substance Use Treatment" }, "geometry": { "type": "Point", "coordinates": [ -84.536407, 38.98664 ] } },
{ "type": "Feature", "properties": { "Name": "Cumberland River Behavioral Health", "Address": "215 East Tennessee Avenue, Pineville, KY 40977", "county": "Bell", "website": "http:\/\/www.crbhky.org", "latitude": 36.759808, "longitude": -83.6944695, "facility type": "Substance Use Treatment" }, "geometry": { "type": "Point", "coordinates": [ -83.6944695, 36.759808 ] } },
{ "type": "Feature", "properties": { "Name": "Life Management Inc", "Address": "116 Bauer Avenue, 2nd Floor, Louisville, KY 40207", "county": "Jefferson", "website": "http:\/\/www.lifemanagementclinic.org", "latitude": 38.25218, "longitude": -85.6616899, "facility type": "Substance Use Treatment" }, "geometry": { "type": "Point", "coordinates": [ -85.6616899, 38.25218 ] } },
{ "type": "Feature", "properties": { "Name": "Dr Donald T Stokes and Associates Inc", "Address": "1941 Bishop Lane, Watterson City West Bldg, Suite 505, Louisville, KY 40218", "county": "Jefferson", "website": "http:\/\/", "latitude": 38.202984, "longitude": -85.6835733, "facility type": "Substance Use Treatment" }, "geometry": { "type": "Point", "coordinates": [ -85.6835733, 38.202984 ] } },
{ "type": "Feature", "properties": { "Name": "Alcohol Services of Kentucky", "Address": "7505 Sussex Drive, Suite 214, Florence, KY 41042", "county": "Boone", "website": "http:\/\/", "latitude": 38.9846723, "longitude": -84.6324174, "facility type": "Substance Use Treatment" }, "geometry": { "type": "Point", "coordinates": [ -84.6324174, 38.9846723 ] } },
{ "type": "Feature", "properties": { "Name": "Commonwealth SA Specialists", "Address": "4150 Alexandria Pike, Suite 102, Newport, KY 41076", "county": "Campbell", "website": "http:\/\/", "latitude": 39.0200663, "longitude": -84.438565, "facility type": "Substance Use Treatment" }, "geometry": { "type": "Point", "coordinates": [ -84.438565, 39.0200663 ] } },
{ "type": "Feature", "properties": { "Name": "Commonwealth Counseling Service Inc", "Address": "8160 Dream Street, Suite C, Florence, KY 41042", "county": "Boone", "website": "http:\/\/WWW.CINCINNATICOUNSELING.ORG", "latitude": 38.9922394, "longitude": -84.6406777, "facility type": "Substance Use Treatment" }, "geometry": { "type": "Point", "coordinates": [ -84.6406777, 38.9922394 ] } },
{ "type": "Feature", "properties": { "Name": "Renew Recovery", "Address": "599 Freedom Park Drive, Fort Mitchell, KY 41017", "county": "Kenton", "website": "http:\/\/renewrecovery.com", "latitude": 39.0091207, "longitude": -84.5558532, "facility type": "Substance Use Treatment" }, "geometry": { "type": "Point", "coordinates": [ -84.5558532, 39.0091207 ] } },
{ "type": "Feature", "properties": { "Name": "Communicare Inc", "Address": "80 Phillips Lane, Suite 2, Hodgenville, KY 42748", "county": "Larue", "website": "http:\/\/communicare.org", "latitude": 37.5815896, "longitude": -85.7350017, "facility type": "Substance Use Treatment" }, "geometry": { "type": "Point", "coordinates": [ -85.7350017, 37.5815896 ] } },
{ "type": "Feature", "properties": { "Name": "Awareness and Discovery Group LLC", "Address": "2  Dortha Avenue, Florence, KY 41042", "county": "Boone", "website": "http:\/\/www.awarenessdiscovery.com", "latitude": 39.0026747, "longitude": -84.6239485, "facility type": "Substance Use Treatment" }, "geometry": { "type": "Point", "coordinates": [ -84.6239485, 39.0026747 ] } },
{ "type": "Feature", "properties": { "Name": "Towns Counseling Services PSC", "Address": "112 South Walters Avenue, Suite 102, Hodgenville, KY 42748", "county": "Larue", "website": "http:\/\/", "latitude": 37.5730804, "longitude": -85.7415671, "facility type": "Substance Use Treatment" }, "geometry": { "type": "Point", "coordinates": [ -85.7415671, 37.5730804 ] } },
{ "type": "Feature", "properties": { "Name": "East Kentucky Rehabilitation Center", "Address": "290 East Court Street, Prestonsburg, KY 41653", "county": "Floyd", "website": "http:\/\/", "latitude": 37.6675413, "longitude": -82.7743106, "facility type": "Substance Use Treatment" }, "geometry": { "type": "Point", "coordinates": [ -82.7743106, 37.6675413 ] } },
{ "type": "Feature", "properties": { "Name": "Our Lady of Peace", "Address": "2020 Newburg Road, Louisville, KY 40205", "county": "Jefferson", "website": "http:\/\/www.kentuckyonehealth.org\/our-lady-of-peace", "latitude": 38.2172695, "longitude": -85.7098263, "facility type": "Substance Use Treatment" }, "geometry": { "type": "Point", "coordinates": [ -85.7098263, 38.2172695 ] } },
{ "type": "Feature", "properties": { "Name": "Commonwealth Counseling Centers", "Address": "156 North Lake Drive, Prestonsburg, KY 41653", "county": "Floyd", "website": "http:\/\/cccentersky.com", "latitude": 37.6687479, "longitude": -82.7733398, "facility type": "Substance Use Treatment" }, "geometry": { "type": "Point", "coordinates": [ -82.7733398, 37.6687479 ] } },
{ "type": "Feature", "properties": { "Name": "VanArk Behavioral Mangement Inc", "Address": "193 East Court Street, Prestonsburg, KY 41653", "county": "Floyd", "website": "http:\/\/www.vanarkdui.com", "latitude": 37.6684455, "longitude": -82.7723036, "facility type": "Substance Use Treatment" }, "geometry": { "type": "Point", "coordinates": [ -82.7723036, 37.6684455 ] } },
{ "type": "Feature", "properties": { "Name": "Necco Inc", "Address": "75 Cavalier Boulevard, Suite 110, Florence, KY 41042", "county": "Boone", "website": "http:\/\/www.necco.org", "latitude": 39.0072305, "longitude": -84.635785, "facility type": "Substance Use Treatment" }, "geometry": { "type": "Point", "coordinates": [ -84.635785, 39.0072305 ] } },
{ "type": "Feature", "properties": { "Name": "Commonwealth SA Specialists", "Address": "7000 Houston Road, Building 400, Suite 43, Florence, KY 41042", "county": "Boone", "website": "http:\/\/www.CSAS.com", "latitude": 39.007408, "longitude": -84.6498541, "facility type": "Substance Use Treatment" }, "geometry": { "type": "Point", "coordinates": [ -84.6498541, 39.007408 ] } },
{ "type": "Feature", "properties": { "Name": "Addiction Recovery Care LLC", "Address": "210 Thomas More Parkway, Fort Mitchell, KY 41017", "county": "Kenton", "website": "http:\/\/www.arccenters.com", "latitude": 39.0234364, "longitude": -84.5703272, "facility type": "Substance Use Treatment" }, "geometry": { "type": "Point", "coordinates": [ -84.5703272, 39.0234364 ] } },
{ "type": "Feature", "properties": { "Name": "Morton Center", "Address": "1028 Barret Avenue, Louisville, KY 40204", "county": "Jefferson", "website": "http:\/\/www.themortoncenter.org", "latitude": 38.2353776, "longitude": -85.7278635, "facility type": "Substance Use Treatment" }, "geometry": { "type": "Point", "coordinates": [ -85.7278635, 38.2353776 ] } },
{ "type": "Feature", "properties": { "Name": "Renew Behavioral Health", "Address": "286 U.S. Highway 23 North, Prestonsburg, KY 41653", "county": "Floyd", "website": "http:\/\/", "latitude": 37.6386116, "longitude": -82.7533863, "facility type": "Substance Use Treatment" }, "geometry": { "type": "Point", "coordinates": [ -82.7533863, 37.6386116 ] } },
{ "type": "Feature", "properties": { "Name": "Sun Behavioral Health ", "Address": "820 Dolwick Drive, Erlanger, KY 41018", "county": "Kenton", "website": "http:\/\/sunbehavioral.com\/kentucky", "latitude": 39.0384161, "longitude": -84.5953254, "facility type": "Substance Use Treatment" }, "geometry": { "type": "Point", "coordinates": [ -84.5953254, 39.0384161 ] } },
{ "type": "Feature", "properties": { "Name": "NorthKey Community Care", "Address": "502 Farrell Drive, Covington, KY 41012", "county": "Kenton", "website": "http:\/\/www.northkey.org", "latitude": 39.0497329, "longitude": -84.5290012, "facility type": "Substance Use Treatment" }, "geometry": { "type": "Point", "coordinates": [ -84.5290012, 39.0497329 ] } },
{ "type": "Feature", "properties": { "Name": "Specialized Alternatives for Families", "Address": "One Moock Road , Suite 101, Building B, Newport, KY 41071", "county": "Campbell", "website": "http:\/\/www.safy.org", "latitude": 39.055147, "longitude": -84.485893, "facility type": "Substance Use Treatment" }, "geometry": { "type": "Point", "coordinates": [ -84.485893, 39.055147 ] } },
{ "type": "Feature", "properties": { "Name": "Saint Jude Womens Recovery Center", "Address": "431 East Saint Catherine Street, Louisville, KY 40203", "county": "Jefferson", "website": "http:\/\/www.svdplou.org\/", "latitude": 38.2358517, "longitude": -85.7474916, "facility type": "Substance Use Treatment" }, "geometry": { "type": "Point", "coordinates": [ -85.7474916, 38.2358517 ] } },
{ "type": "Feature", "properties": { "Name": "Commonwealth SA Specialists", "Address": "525 Alexandria Pike, Suite 250, Newport, KY 41071", "county": "Campbell", "website": "http:\/\/", "latitude": 39.0642087, "longitude": -84.4628094, "facility type": "Substance Use Treatment" }, "geometry": { "type": "Point", "coordinates": [ -84.4628094, 39.0642087 ] } },
{ "type": "Feature", "properties": { "Name": "Mountain Comprehensive Care Center", "Address": "11206 Main Street, Martin, KY 41649", "county": "Floyd", "website": "http:\/\/www.mtcomp.org", "latitude": 37.5772096, "longitude": -82.7513521, "facility type": "Substance Use Treatment" }, "geometry": { "type": "Point", "coordinates": [ -82.7513521, 37.5772096 ] } },
{ "type": "Feature", "properties": { "Name": "Beacon House Aftercare Program Inc", "Address": "963 South 2nd Street, Louisville, KY 40203", "county": "Jefferson", "website": "http:\/\/www.beaconhouseky.org\/", "latitude": 38.2392687, "longitude": -85.7557234, "facility type": "Substance Use Treatment" }, "geometry": { "type": "Point", "coordinates": [ -85.7557234, 38.2392687 ] } },
{ "type": "Feature", "properties": { "Name": "Greater Louisville Counseling Center", "Address": "332 West Broadway, Suite 905, Louisville, KY 40202", "county": "Jefferson", "website": "http:\/\/", "latitude": 38.2536, "longitude": -85.7498, "facility type": "Substance Use Treatment" }, "geometry": { "type": "Point", "coordinates": [ -85.7498, 38.2536 ] } },
{ "type": "Feature", "properties": { "Name": "NKY Med Clinic LLC", "Address": "1717 Madison Avenue, Covington, KY 41011", "county": "Kenton", "website": "http:\/\/www.nkymed.com", "latitude": 39.069916, "longitude": -84.5073479, "facility type": "Substance Use Treatment" }, "geometry": { "type": "Point", "coordinates": [ -84.5073479, 39.069916 ] } },
{ "type": "Feature", "properties": { "Name": "Praxis Recovery", "Address": "4419 LaSalle Avenue, Louisville, KY 40215", "county": "Jefferson", "website": "http:\/\/www.praxistreatment.com", "latitude": 38.1772527, "longitude": -85.7916099, "facility type": "Substance Use Treatment" }, "geometry": { "type": "Point", "coordinates": [ -85.7916099, 38.1772527 ] } },
{ "type": "Feature", "properties": { "Name": "Fresh Start Educ and Csl Center Inc", "Address": "4936 Hazelwood Avenue, Louisville, KY 40214", "county": "Jefferson", "website": "http:\/\/FreshStartEDU.COM", "latitude": 38.1717807, "longitude": -85.7957478, "facility type": "Substance Use Treatment" }, "geometry": { "type": "Point", "coordinates": [ -85.7957478, 38.1717807 ] } },
{ "type": "Feature", "properties": { "Name": "Commonwealth SA Specialists", "Address": "1002 Washington Avenue, Suite 1, Newport, KY 41071", "county": "Campbell", "website": "http:\/\/", "latitude": 39.088201, "longitude": -84.486808, "facility type": "Substance Use Treatment" }, "geometry": { "type": "Point", "coordinates": [ -84.486808, 39.088201 ] } },
{ "type": "Feature", "properties": { "Name": "Commonwealth SA Specialists", "Address": "525 5th Street, Suite 235, Covington, KY 41011", "county": "Kenton", "website": "http:\/\/csasnky.com\/", "latitude": 39.0849155, "longitude": -84.5196793, "facility type": "Substance Use Treatment" }, "geometry": { "type": "Point", "coordinates": [ -84.5196793, 39.0849155 ] } },
{ "type": "Feature", "properties": { "Name": "Corner of Hope Recovery Center", "Address": "1811 Standard Avenue, Louisville, KY 40210", "county": "Jefferson", "website": "http:\/\/www.cornerofhope.us", "latitude": 38.2314989, "longitude": -85.7901287, "facility type": "Substance Use Treatment" }, "geometry": { "type": "Point", "coordinates": [ -85.7901287, 38.2314989 ] } },
{ "type": "Feature", "properties": { "Name": "Choices Counseling PLLC", "Address": "3934 Dixie Highway, Suite 330, Louisville, KY 40216", "county": "Jefferson", "website": "http:\/\/www.empoweredbychoices.org", "latitude": 38.1940576, "longitude": -85.8076049, "facility type": "Substance Use Treatment" }, "geometry": { "type": "Point", "coordinates": [ -85.8076049, 38.1940576 ] } },
{ "type": "Feature", "properties": { "Name": "reNest", "Address": "228 Adams Road, Elizabethtown, KY 42701", "county": "Hardin", "website": "http:\/\/", "latitude": 37.6847014, "longitude": -85.8547702, "facility type": "Substance Use Treatment" }, "geometry": { "type": "Point", "coordinates": [ -85.8547702, 37.6847014 ] } },
{ "type": "Feature", "properties": { "Name": "Hub City Services LLC", "Address": "7 Public Square, Elizabethtown, KY 42701", "county": "Hardin", "website": "http:\/\/", "latitude": 37.69295901, "longitude": -85.85774549, "facility type": "Substance Use Treatment" }, "geometry": { "type": "Point", "coordinates": [ -85.85774549, 37.69295901 ] } },
{ "type": "Feature", "properties": { "Name": "Renew Recovery", "Address": "9702 Stonestreet Road, Medical Plaza 1, Suite 120, Louisville, KY 40272", "county": "Jefferson", "website": "http:\/\/RenewRecovery.com", "latitude": 38.1129589, "longitude": -85.8405159, "facility type": "Substance Use Treatment" }, "geometry": { "type": "Point", "coordinates": [ -85.8405159, 38.1129589 ] } },
{ "type": "Feature", "properties": { "Name": "Clear Vision Counseling LLC", "Address": "7160 Dixie Highway, Louisville, KY 40258", "county": "Jefferson", "website": "http:\/\/www.clearvisioncounseling.org", "latitude": 38.1467422, "longitude": -85.8384694, "facility type": "Substance Use Treatment" }, "geometry": { "type": "Point", "coordinates": [ -85.8384694, 38.1467422 ] } },
{ "type": "Feature", "properties": { "Name": "Cumberland River Behavioral Health", "Address": "134 Comprehensive Drive, Harlan, KY 40831", "county": "Harlan", "website": "http:\/\/www.crbhky.org", "latitude": 36.8088167, "longitude": -83.3114242, "facility type": "Substance Use Treatment" }, "geometry": { "type": "Point", "coordinates": [ -83.3114242, 36.8088167 ] } },
{ "type": "Feature", "properties": { "Name": "Communicare EAST Center", "Address": "100 Gray Street, Elizabethtown, KY 42701", "county": "Hardin", "website": "http:\/\/www.communicare.org", "latitude": 37.7229452, "longitude": -85.8827221, "facility type": "Substance Use Treatment" }, "geometry": { "type": "Point", "coordinates": [ -85.8827221, 37.7229452 ] } },
{ "type": "Feature", "properties": { "Name": "Recovery Solutions LLC", "Address": "1239 Woodland Drive, Suite 108, Elizabethtown, KY 42701", "county": "Hardin", "website": "http:\/\/", "latitude": 37.7209094, "longitude": -85.8826022, "facility type": "Substance Use Treatment" }, "geometry": { "type": "Point", "coordinates": [ -85.8826022, 37.7209094 ] } },
{ "type": "Feature", "properties": { "Name": "Spero Health", "Address": "809 North 19th Street, Middlesboro, KY 40965", "county": "Bell", "website": "http:\/\/sperohealth.com\/", "latitude": 36.6224449, "longitude": -83.712351, "facility type": "Substance Use Treatment" }, "geometry": { "type": "Point", "coordinates": [ -83.712351, 36.6224449 ] } },
{ "type": "Feature", "properties": { "Name": "Spero Health", "Address": "71 Conn Street, Ivel, KY 41642", "county": "Floyd", "website": "http:\/\/sperohealth.com", "latitude": 37.5803177, "longitude": -82.6613194, "facility type": "Substance Use Treatment" }, "geometry": { "type": "Point", "coordinates": [ -82.6613194, 37.5803177 ] } },
{ "type": "Feature", "properties": { "Name": "C Ferguson Counseling Services", "Address": "1402 North Dixie Highway, Radcliff, KY 40160", "county": "Hardin", "website": "http:\/\/", "latitude": 37.7896432, "longitude": -85.9127705, "facility type": "Substance Use Treatment" }, "geometry": { "type": "Point", "coordinates": [ -85.9127705, 37.7896432 ] } },
{ "type": "Feature", "properties": { "Name": "Cumberland River Behavioral Health", "Address": "324 1\/2 North 19th Street, Middlesboro, KY 40965", "county": "Bell", "website": "http:\/\/www.crbhky.org", "latitude": 36.605987, "longitude": -83.7125882, "facility type": "Substance Use Treatment" }, "geometry": { "type": "Point", "coordinates": [ -83.7125882, 36.605987 ] } },
{ "type": "Feature", "properties": { "Name": "Communicare Inc", "Address": "1072 South Dixie Boulevard, Radcliff, KY 40160", "county": "Hardin", "website": "http:\/\/www.communicare.org\/", "latitude": 37.8284163, "longitude": -85.9278594, "facility type": "Substance Use Treatment" }, "geometry": { "type": "Point", "coordinates": [ -85.9278594, 37.8284163 ] } },
{ "type": "Feature", "properties": { "Name": "Foothills Community Based Intervention", "Address": "104 Washington Street, Albany, KY 42602", "county": "Clinton", "website": "http:\/\/www.cbiky.org", "latitude": 36.690648, "longitude": -85.135063, "facility type": "Substance Use Treatment" }, "geometry": { "type": "Point", "coordinates": [ -85.135063, 36.690648 ] } },
{ "type": "Feature", "properties": { "Name": "Cornerstone Christian Csl Louisa Inc", "Address": "125 South Main Cross Street, Louisa, KY 41230", "county": "Lawrence", "website": "http:\/\/www.cornerstone-christian-counseling.org", "latitude": 38.1152206, "longitude": -82.6027999, "facility type": "Substance Use Treatment" }, "geometry": { "type": "Point", "coordinates": [ -82.6027999, 38.1152206 ] } },
{ "type": "Feature", "properties": { "Name": "Serenity Counseling Services", "Address": "301 Keen Street, Burkesville, KY 42717", "county": "Cumberland", "website": "http:\/\/www.serenitycounselingky.com", "latitude": 36.7827321, "longitude": -85.3706283, "facility type": "Substance Use Treatment" }, "geometry": { "type": "Point", "coordinates": [ -85.3706283, 36.7827321 ] } },
{ "type": "Feature", "properties": { "Name": "A Center 4 Change", "Address": "5900 U.S. 60 West, Suite B, Ashland, KY 41102", "county": "Boyd", "website": "http:\/\/www.acenter4change.com", "latitude": 38.4368444, "longitude": -82.6873342, "facility type": "Substance Use Treatment" }, "geometry": { "type": "Point", "coordinates": [ -82.6873342, 38.4368444 ] } },
{ "type": "Feature", "properties": { "Name": "A Center 4 Change", "Address": "1451 Diedrich Boulevard, Russell, KY 41169", "county": "Greenup", "website": "http:\/\/www.acenter4change.com", "latitude": 38.5063522, "longitude": -82.7011219, "facility type": "Substance Use Treatment" }, "geometry": { "type": "Point", "coordinates": [ -82.7011219, 38.5063522 ] } },
{ "type": "Feature", "properties": { "Name": "Bluegrass Professional Counseling", "Address": "103 East South Street, Munfordville, KY 42765", "county": "Hart", "website": "http:\/\/www.bluegrassprofessionalcounseling.com", "latitude": 37.2714306, "longitude": -85.8894432, "facility type": "Substance Use Treatment" }, "geometry": { "type": "Point", "coordinates": [ -85.8894432, 37.2714306 ] } },
{ "type": "Feature", "properties": { "Name": "Ramey Estep Homes\/ReGroup", "Address": "835 Central Avenue, Ashland, KY 41101", "county": "Boyd", "website": "http:\/\/", "latitude": 38.4815018, "longitude": -82.6494414, "facility type": "Substance Use Treatment" }, "geometry": { "type": "Point", "coordinates": [ -82.6494414, 38.4815018 ] } },
{ "type": "Feature", "properties": { "Name": "Hand of Hope", "Address": "2150 Carter Avenue, Ashland, KY 41101", "county": "Boyd", "website": "http:\/\/", "latitude": 38.4741192, "longitude": -82.634037, "facility type": "Substance Use Treatment" }, "geometry": { "type": "Point", "coordinates": [ -82.634037, 38.4741192 ] } },
{ "type": "Feature", "properties": { "Name": "Ultimate Treatment Center", "Address": "3655 Winchester Avenue, Ashland, KY 41101", "county": "Boyd", "website": "http:\/\/www.ultimatetreatmentcenter.co\/", "latitude": 38.4640394, "longitude": -82.6155514, "facility type": "Substance Use Treatment" }, "geometry": { "type": "Point", "coordinates": [ -82.6155514, 38.4640394 ] } },
{ "type": "Feature", "properties": { "Name": "VanArk Behavioral Mangement Inc", "Address": "3416 Chloe Road, Suite 2, Pikeville, KY 41501", "county": "Pike", "website": "http:\/\/", "latitude": 37.4561905, "longitude": -82.47808593000001, "facility type": "Substance Use Treatment" }, "geometry": { "type": "Point", "coordinates": [ -82.47808593, 37.4561905 ] } },
{ "type": "Feature", "properties": { "Name": "Communicare Inc", "Address": "2025 Bypass Road, Suite 205, Brandenburg, KY 40108", "county": "Meade", "website": "http:\/\/www.communicare.org", "latitude": 37.988236, "longitude": -86.18909, "facility type": "Substance Use Treatment" }, "geometry": { "type": "Point", "coordinates": [ -86.18909, 37.988236 ] } },
{ "type": "Feature", "properties": { "Name": "WestCare Kentucky", "Address": "10057 Elkhorn Creek, Ashcamp, KY 41512", "county": "Pike", "website": "http:\/\/www.westcare.com\/", "latitude": 37.2541071, "longitude": -82.480689, "facility type": "Substance Use Treatment" }, "geometry": { "type": "Point", "coordinates": [ -82.480689, 37.2541071 ] } },
{ "type": "Feature", "properties": { "Name": "Family Options Inc", "Address": "108 Ensminger Drive, Suite A, Glasgow, KY 42141", "county": "Barren", "website": "http:\/\/familyoptionsinc.wixsite.com\/familyoptions", "latitude": 37.0093713, "longitude": -85.923624, "facility type": "Substance Use Treatment" }, "geometry": { "type": "Point", "coordinates": [ -85.923624, 37.0093713 ] } },
{ "type": "Feature", "properties": { "Name": "Alliance Counseling Associates", "Address": "104 Reynolds Road, Glasgow, KY 42141", "county": "Barren", "website": "http:\/\/www.alliancecounselingky.com", "latitude": 37.014592, "longitude": -85.929083, "facility type": "Substance Use Treatment" }, "geometry": { "type": "Point", "coordinates": [ -85.929083, 37.014592 ] } },
{ "type": "Feature", "properties": { "Name": "Clinic", "Address": "160 Hospital Drive, South Williamson, KY 41503", "county": "Pike", "website": "http:\/\/", "latitude": 37.676851, "longitude": -82.2962839, "facility type": "Substance Use Treatment" }, "geometry": { "type": "Point", "coordinates": [ -82.2962839, 37.676851 ] } },
{ "type": "Feature", "properties": { "Name": "Everlasting Arms Family Counseling Ctr", "Address": "409 Millerstown Street, Clarkson, KY 42726", "county": "Grayson", "website": "http:\/\/eafcc.com", "latitude": 37.4931001, "longitude": -86.2170675, "facility type": "Substance Use Treatment" }, "geometry": { "type": "Point", "coordinates": [ -86.2170675, 37.4931001 ] } },
{ "type": "Feature", "properties": { "Name": "Communicare Inc", "Address": "805 Commerce Drive, Leitchfield, KY 42754", "county": "Grayson", "website": "http:\/\/www.communicare.org", "latitude": 37.4649559, "longitude": -86.2782039, "facility type": "Substance Use Treatment" }, "geometry": { "type": "Point", "coordinates": [ -86.2782039, 37.4649559 ] } },
{ "type": "Feature", "properties": { "Name": "Pathways Counseling Services", "Address": "300 Mill Street, Leitchfield, KY 42754", "county": "Grayson", "website": "http:\/\/", "latitude": 37.484629, "longitude": -86.291364, "facility type": "Substance Use Treatment" }, "geometry": { "type": "Point", "coordinates": [ -86.291364, 37.484629 ] } },
{ "type": "Feature", "properties": { "Name": "Communicare Inc", "Address": "207 Fairgrounds Road, Suite B, Hardinsburg, KY 40143", "county": "Breckinridge", "website": "http:\/\/www.communicare.org", "latitude": 37.767083, "longitude": -86.439789, "facility type": "Substance Use Treatment" }, "geometry": { "type": "Point", "coordinates": [ -86.439789, 37.767083 ] } },
{ "type": "Feature", "properties": { "Name": "Pathways Counseling Services", "Address": "607 Old U.S. 60, Hardinsburg, KY 40143", "county": "Breckinridge", "website": "http:\/\/", "latitude": 37.810621, "longitude": -86.512682, "facility type": "Substance Use Treatment" }, "geometry": { "type": "Point", "coordinates": [ -86.512682, 37.810621 ] } },
{ "type": "Feature", "properties": { "Name": "Rivendell Behavioral Health Services", "Address": "1035 Porter Pike, Bowling Green, KY 42103", "county": "Warren", "website": "http:\/\/www.rivendellbehavioral.com", "latitude": 36.9989913, "longitude": -86.37975636, "facility type": "Substance Use Treatment" }, "geometry": { "type": "Point", "coordinates": [ -86.37975636, 36.9989913 ] } },
{ "type": "Feature", "properties": { "Name": "Center for Behavioral Health Inc", "Address": "1990 Louisville Road, Suite 110, Bowling Green, KY 42101", "county": "Warren", "website": "http:\/\/www.centerforbehavioralhealth.com", "latitude": 37.0075481, "longitude": -86.4148787, "facility type": "Substance Use Treatment" }, "geometry": { "type": "Point", "coordinates": [ -86.4148787, 37.0075481 ] } },
{ "type": "Feature", "properties": { "Name": "Spero Health", "Address": "640 Wright Avenue, Bowling Green, KY 42101", "county": "Warren", "website": "http:\/\/sperohealth.com\/", "latitude": 36.9871165, "longitude": -86.4279028, "facility type": "Substance Use Treatment" }, "geometry": { "type": "Point", "coordinates": [ -86.4279028, 36.9871165 ] } },
{ "type": "Feature", "properties": { "Name": "Necco Inc", "Address": "942 Searcy Way, Bowling Green, KY 42103", "county": "Warren", "website": "http:\/\/www.necco.org", "latitude": 36.9559668, "longitude": -86.4184539, "facility type": "Substance Use Treatment" }, "geometry": { "type": "Point", "coordinates": [ -86.4184539, 36.9559668 ] } },
{ "type": "Feature", "properties": { "Name": "Educational Counseling of America", "Address": "920 Clay Street, Bowling Green, KY 42101", "county": "Warren", "website": "http:\/\/", "latitude": 36.99773113, "longitude": -86.44597504, "facility type": "Substance Use Treatment" }, "geometry": { "type": "Point", "coordinates": [ -86.44597504, 36.99773113 ] } },
{ "type": "Feature", "properties": { "Name": "Greater Hope Counseling Services LLC", "Address": "1043 Pedigo Way, Suite 30, Bowling Green, KY 42103", "county": "Warren", "website": "http:\/\/greaterhopecounselingky.com", "latitude": 36.9524799, "longitude": -86.4224084, "facility type": "Substance Use Treatment" }, "geometry": { "type": "Point", "coordinates": [ -86.4224084, 36.9524799 ] } },
{ "type": "Feature", "properties": { "Name": "ASAP at Wilson Place", "Address": "1312 Westen Street, Bowling Green, KY 42104", "county": "Warren", "website": "http:\/\/www.wilsoncounselingllc.com", "latitude": 36.9683896, "longitude": -86.437929, "facility type": "Substance Use Treatment" }, "geometry": { "type": "Point", "coordinates": [ -86.437929, 36.9683896 ] } },
{ "type": "Feature", "properties": { "Name": "More to Life Counseling", "Address": "351 Pascoe Boulevard, Suite 102, Bowling Green, KY 42104", "county": "Warren", "website": "http:\/\/www.Moretolifecounseling.com", "latitude": 36.9419867, "longitude": -86.42486, "facility type": "Substance Use Treatment" }, "geometry": { "type": "Point", "coordinates": [ -86.42486, 36.9419867 ] } },
{ "type": "Feature", "properties": { "Name": "Community Resource Center Inc", "Address": "1733 Campus Plaza, Court 15, Bowling Green, KY 42101", "county": "Warren", "website": "http:\/\/", "latitude": 36.97980092, "longitude": -86.45387167, "facility type": "Substance Use Treatment" }, "geometry": { "type": "Point", "coordinates": [ -86.45387167, 36.97980092 ] } },
{ "type": "Feature", "properties": { "Name": "Park Place Recovery Center for Men", "Address": "822 Woodway Drive, Bowling Green, KY 42101", "county": "Warren", "website": "http:\/\/www.lifeskills.com", "latitude": 36.993219, "longitude": -86.472641, "facility type": "Substance Use Treatment" }, "geometry": { "type": "Point", "coordinates": [ -86.472641, 36.993219 ] } },
{ "type": "Feature", "properties": { "Name": "Haven4Change", "Address": "1500 Parkside Drive, Bowling Green, KY 42101", "county": "Warren", "website": "http:\/\/haven4change.org", "latitude": 36.9904856, "longitude": -86.4711013, "facility type": "Substance Use Treatment" }, "geometry": { "type": "Point", "coordinates": [ -86.4711013, 36.9904856 ] } },
{ "type": "Feature", "properties": { "Name": "River Valley Behavioral Health", "Address": "107 Harrison Street, Hawesville, KY 42348", "county": "Hancock", "website": "http:\/\/www.rvbh.com", "latitude": 37.9049709, "longitude": -86.75805, "facility type": "Substance Use Treatment" }, "geometry": { "type": "Point", "coordinates": [ -86.75805, 37.9049709 ] } },
{ "type": "Feature", "properties": { "Name": "River Valley Behavioral Health", "Address": "1269 Duvall Road, Beaver Dam, KY 42320", "county": "Ohio", "website": "http:\/\/www.rvbh.com", "latitude": 37.416888, "longitude": -86.8614842, "facility type": "Substance Use Treatment" }, "geometry": { "type": "Point", "coordinates": [ -86.8614842, 37.416888 ] } },
{ "type": "Feature", "properties": { "Name": "Peaceful Solutions Counseling Services", "Address": "608 South Main Street, Franklin, KY 42134", "county": "Simpson", "website": "http:\/\/www.peacefulsolutionscounseling.com", "latitude": 36.712676, "longitude": -86.576361, "facility type": "Substance Use Treatment" }, "geometry": { "type": "Point", "coordinates": [ -86.576361, 36.712676 ] } },
{ "type": "Feature", "properties": { "Name": "FamilyCare Counseling Center LLC", "Address": "215 Bluegrass Road, Suite C, Franklin, KY 42134", "county": "Simpson", "website": "http:\/\/familycareky.com", "latitude": 36.7033969, "longitude": -86.591891, "facility type": "Substance Use Treatment" }, "geometry": { "type": "Point", "coordinates": [ -86.591891, 36.7033969 ] } },
{ "type": "Feature", "properties": { "Name": "Solutions Counseling Services", "Address": "3520 New Hartford Road, Suite 202, Owensboro, KY 42303", "county": "Daviess", "website": "http:\/\/", "latitude": 37.7354648, "longitude": -87.0913375, "facility type": "Substance Use Treatment" }, "geometry": { "type": "Point", "coordinates": [ -87.0913375, 37.7354648 ] } },
{ "type": "Feature", "properties": { "Name": "TrueNorth Treatment Center", "Address": "121 East 2nd Street, Suite 401, Owensboro, KY 42303", "county": "Daviess", "website": "http:\/\/www.truenorthky.com", "latitude": 37.7752474, "longitude": -87.1102121, "facility type": "Substance Use Treatment" }, "geometry": { "type": "Point", "coordinates": [ -87.1102121, 37.7752474 ] } },
{ "type": "Feature", "properties": { "Name": "Counseling Center Inc", "Address": "101 East 2nd Street, Suite 105, Owensboro, KY 42303", "county": "Daviess", "website": "http:\/\/", "latitude": 37.775138, "longitude": -87.111006, "facility type": "Substance Use Treatment" }, "geometry": { "type": "Point", "coordinates": [ -87.111006, 37.775138 ] } },
{ "type": "Feature", "properties": { "Name": "New Way of Life Counseling", "Address": "235 Saint Ann Street, Owensboro, KY 42303", "county": "Daviess", "website": "http:\/\/", "latitude": 37.773893, "longitude": -87.112271, "facility type": "Substance Use Treatment" }, "geometry": { "type": "Point", "coordinates": [ -87.112271, 37.773893 ] } },
{ "type": "Feature", "properties": { "Name": "Lighthouse Counseling Services Inc", "Address": "920 Frederica Street, Midtown Building, Suite 407, Owensboro, KY 42301", "county": "Daviess", "website": "http:\/\/www.LCSinc.org", "latitude": 37.7666937, "longitude": -87.113593, "facility type": "Substance Use Treatment" }, "geometry": { "type": "Point", "coordinates": [ -87.113593, 37.7666937 ] } },
{ "type": "Feature", "properties": { "Name": "Spero Health", "Address": "710 Carlton Drive, Owensboro, KY 42302", "county": "Daviess", "website": "http:\/\/sperohealth.com\/", "latitude": 37.7244839, "longitude": -87.12173, "facility type": "Substance Use Treatment" }, "geometry": { "type": "Point", "coordinates": [ -87.12173, 37.7244839 ] } },
{ "type": "Feature", "properties": { "Name": "LifeSkills Inc", "Address": "433 Shelton Lane, Russellville, KY 42276", "county": "Logan", "website": "http:\/\/www.lifeskills.com", "latitude": 36.8496522, "longitude": -86.904905, "facility type": "Substance Use Treatment" }, "geometry": { "type": "Point", "coordinates": [ -86.904905, 36.8496522 ] } },
{ "type": "Feature", "properties": { "Name": "Cindy Baird DUI Services LLC", "Address": "109 South 3rd Street, Saint Joseph Church, Central City, KY 42330", "county": "Muhlenberg", "website": "http:\/\/", "latitude": 37.2938014, "longitude": -87.1221413, "facility type": "Substance Use Treatment" }, "geometry": { "type": "Point", "coordinates": [ -87.1221413, 37.2938014 ] } },
{ "type": "Feature", "properties": { "Name": "Solutions Counseling Services", "Address": "404 Main Street, Calhoun, KY 42327", "county": "McLean", "website": "http:\/\/", "latitude": 37.539449, "longitude": -87.2580382, "facility type": "Substance Use Treatment" }, "geometry": { "type": "Point", "coordinates": [ -87.2580382, 37.539449 ] } },
{ "type": "Feature", "properties": { "Name": "Pathways Counseling Services PLLC", "Address": "401 Hoffman Drive, Suite L, Henderson, KY 42420", "county": "Henderson", "website": "http:\/\/", "latitude": 37.8354532, "longitude": -87.5706357, "facility type": "Substance Use Treatment" }, "geometry": { "type": "Point", "coordinates": [ -87.5706357, 37.8354532 ] } },
{ "type": "Feature", "properties": { "Name": "River Valley Behavioral Health", "Address": "618 North Green Street, Henderson, KY 42420", "county": "Henderson", "website": "http:\/\/www.rvbh.com", "latitude": 37.8450779, "longitude": -87.5844166, "facility type": "Substance Use Treatment" }, "geometry": { "type": "Point", "coordinates": [ -87.5844166, 37.8450779 ] } },
{ "type": "Feature", "properties": { "Name": "Lighthouse Counseling Services Inc", "Address": "203 North Elm Street, Henderson, KY 42420", "county": "Henderson", "website": "http:\/\/www.lcsinc.org", "latitude": 37.8403937, "longitude": -87.5901302, "facility type": "Substance Use Treatment" }, "geometry": { "type": "Point", "coordinates": [ -87.5901302, 37.8403937 ] } },
{ "type": "Feature", "properties": { "Name": "ADAPT Counseling Services", "Address": "125 First Street, Suite 101, Henderson, KY 42420", "county": "Henderson", "website": "http:\/\/www.adaptcounselingservices.com", "latitude": 37.8399701, "longitude": -87.5930033, "facility type": "Substance Use Treatment" }, "geometry": { "type": "Point", "coordinates": [ -87.5930033, 37.8399701 ] } },
{ "type": "Feature", "properties": { "Name": "Genesis East", "Address": "2400 Russellville Road, Hopkinsville, KY 42240", "county": "Christian", "website": "http:\/\/pennyroyalcenter.org", "latitude": 36.8628265, "longitude": -87.4501482, "facility type": "Substance Use Treatment" }, "geometry": { "type": "Point", "coordinates": [ -87.4501482, 36.8628265 ] } },
{ "type": "Feature", "properties": { "Name": "Community Counseling Center", "Address": "509 West 9th Street, Hopkinsville, KY 42240", "county": "Christian", "website": "http:\/\/www.communitycounseling.org", "latitude": 36.8666418, "longitude": -87.4920809, "facility type": "Substance Use Treatment" }, "geometry": { "type": "Point", "coordinates": [ -87.4920809, 36.8666418 ] } },
{ "type": "Feature", "properties": { "Name": "Western KY Medical LLC", "Address": "609 Hammond Plaza, Hopkinsville, KY 42240", "county": "Christian", "website": "http:\/\/pinnacletreatment.com", "latitude": 36.8330993, "longitude": -87.4764108, "facility type": "Substance Use Treatment" }, "geometry": { "type": "Point", "coordinates": [ -87.4764108, 36.8330993 ] } },
{ "type": "Feature", "properties": { "Name": "River Valley Behavioral Health", "Address": "606 1st Street, Providence, KY 42450", "county": "Webster", "website": "http:\/\/www.rvbh.com", "latitude": 37.3907378, "longitude": -87.7579778, "facility type": "Substance Use Treatment" }, "geometry": { "type": "Point", "coordinates": [ -87.7579778, 37.3907378 ] } },
{ "type": "Feature", "properties": { "Name": "Counseling Center Inc", "Address": "110 East Main Street, Morganfield, KY 42437", "county": "Union", "website": "http:\/\/", "latitude": 37.683677, "longitude": -87.916674, "facility type": "Substance Use Treatment" }, "geometry": { "type": "Point", "coordinates": [ -87.916674, 37.683677 ] } },
{ "type": "Feature", "properties": { "Name": "River Valley Behavioral Health", "Address": "233 North Townsend Street, Morganfield, KY 42437", "county": "Union", "website": "http:\/\/www.rvbh.com", "latitude": 37.6869613, "longitude": -87.9170471, "facility type": "Substance Use Treatment" }, "geometry": { "type": "Point", "coordinates": [ -87.9170471, 37.6869613 ] } },
{ "type": "Feature", "properties": { "Name": "A New Day Counseling Service LLC", "Address": "1202 Main Street, Benton, KY 42025", "county": "Marshall", "website": "http:\/\/www.anewdaycounseling.vpweb.com", "latitude": 36.8568858, "longitude": -88.3510532, "facility type": "Substance Use Treatment" }, "geometry": { "type": "Point", "coordinates": [ -88.3510532, 36.8568858 ] } },
{ "type": "Feature", "properties": { "Name": "Ensite LLC", "Address": "611 Broadway Street, Paducah, KY 42001", "county": "McCracken", "website": "http:\/\/www.ensite.us", "latitude": 37.085561, "longitude": -88.601129, "facility type": "Substance Use Treatment" }, "geometry": { "type": "Point", "coordinates": [ -88.601129, 37.085561 ] } },
{ "type": "Feature", "properties": { "Name": "Spero Health", "Address": "220 Berger Road, Paducah, KY 42003", "county": "McCracken", "website": "http:\/\/sperohealth.com\/", "latitude": 37.059633, "longitude": -88.6387961, "facility type": "Substance Use Treatment" }, "geometry": { "type": "Point", "coordinates": [ -88.6387961, 37.059633 ] } },
{ "type": "Feature", "properties": { "Name": "Emerald Therapy Center ", "Address": "3227 Coleman Road, Paducah, KY 42001", "county": "McCracken", "website": "http:\/\/www.emeraldtherapycenter.com", "latitude": 37.0826451, "longitude": -88.6803585, "facility type": "Substance Use Treatment" }, "geometry": { "type": "Point", "coordinates": [ -88.6803585, 37.0826451 ] } },
{ "type": "Feature", "properties": { "Name": "Centerstone Inc-Addiction Recovery Center", "Address": "600 South Preston Street, Louisville, KY 40202", "county": "Jefferson", "website": "http:\/\/centerstoneky.org", "latitude": 38.2474641, "longitude": -85.7476662, "facility type": "Substance Use Treatment" }, "geometry": { "type": "Point", "coordinates": [ -85.7476662, 38.2474641 ] } },
{ "type": "Feature", "properties": { "Name": "Lake Hills Oasis-Addiction Recovery Centers", "Address": "125 Jordans Way, Somerset, KY 42501", "county": "Pulaski", "website": "http:\/\/www.arccenters.com\/lake-hills-oasis", "latitude": 37.0961487, "longitude": -84.5697895, "facility type": "Substance Use Treatment" }, "geometry": { "type": "Point", "coordinates": [ -84.5697895, 37.0961487 ] } },
{ "type": "Feature", "properties": { "Name": "Boulware Mission Inc-Addiction Services", "Address": "609 Wing Avenue, Owensboro, KY 42303", "county": "Daviess", "website": "http:\/\/www.boulwaremission.org", "latitude": 37.7732384, "longitude": -87.0935226, "facility type": "Substance Use Treatment" }, "geometry": { "type": "Point", "coordinates": [ -87.0935226, 37.7732384 ] } },
{ "type": "Feature", "properties": { "Name": "Adanta Group-Albany Clinic", "Address": "101 Adanta Circle, Albany, KY 42602", "county": "Clinton", "website": "http:\/\/www.adanta.org", "latitude": 36.7528019, "longitude": -85.1063572, "facility type": "Substance Use Treatment" }, "geometry": { "type": "Point", "coordinates": [ -85.1063572, 36.7528019 ] } },
{ "type": "Feature", "properties": { "Name": "New Vista-Anderson County Outpatient Clinic", "Address": "1060 Glensboro Road, Lawrenceburg, KY 40342", "county": "Anderson", "website": "http:\/\/www.newvista.org", "latitude": 38.0362087, "longitude": -84.9016514, "facility type": "Substance Use Treatment" }, "geometry": { "type": "Point", "coordinates": [ -84.9016514, 38.0362087 ] } },
{ "type": "Feature", "properties": { "Name": "ARC Addiction Reccovery Care-Ashland Counseling Center", "Address": "2900 Winchester Avenue, Ashland, KY 41101", "county": "Boyd", "website": "http:\/\/www.arccenters.com", "latitude": 38.4696139, "longitude": -82.6234841, "facility type": "Substance Use Treatment" }, "geometry": { "type": "Point", "coordinates": [ -82.6234841, 38.4696139 ] } },
{ "type": "Feature", "properties": { "Name": "Crossroads Treatment Center of-Ashland PSC", "Address": "1220 Greenup Avenue, Ashland, KY 41101", "county": "Boyd", "website": "http:\/\/www.crossroadstreatmentcenters.com", "latitude": 38.4813871, "longitude": -82.6430565, "facility type": "Substance Use Treatment" }, "geometry": { "type": "Point", "coordinates": [ -82.6430565, 38.4813871 ] } },
{ "type": "Feature", "properties": { "Name": "LifeSkills Inc-Barren County Service Center", "Address": "608 Happy Valley Road, Glasgow, KY 42142", "county": "Barren", "website": "http:\/\/www.lifeskills.com", "latitude": 37.0078545, "longitude": -85.9163591, "facility type": "Substance Use Treatment" }, "geometry": { "type": "Point", "coordinates": [ -85.9163591, 37.0078545 ] } },
{ "type": "Feature", "properties": { "Name": "Adanta Group-Barren-Glasgow Clinic", "Address": "218 Columbia Avenue, Glasgow, KY 42141", "county": "Barren", "website": "http:\/\/", "latitude": 36.9977163, "longitude": -85.9065339, "facility type": "Substance Use Treatment" }, "geometry": { "type": "Point", "coordinates": [ -85.9065339, 36.9977163 ] } },
{ "type": "Feature", "properties": { "Name": "Pathways Inc-Bath County Outpatient", "Address": "664 Slate Avenue, P.O. Box 327, Owingsville, KY 40360", "county": "Bath", "website": "http:\/\/www.pathways-ky.org", "latitude": 38.1378765, "longitude": -83.7625459, "facility type": "Substance Use Treatment" }, "geometry": { "type": "Point", "coordinates": [ -83.7625459, 38.1378765 ] } },
{ "type": "Feature", "properties": { "Name": "Creative Spirits-Behavioral Service Network", "Address": "30 Stonecrest Court, Suite 100, Shelbyville, KY 40065", "county": "Shelby", "website": "http:\/\/www.creativespiritsonline.com", "latitude": 38.211317, "longitude": -85.2524782, "facility type": "Substance Use Treatment" }, "geometry": { "type": "Point", "coordinates": [ -85.2524782, 38.211317 ] } },
{ "type": "Feature", "properties": { "Name": "ARC Counseling Centers-Belle Grove Springs", "Address": "758 Stockton Road, Wallingford, KY 41093", "county": "Fleming", "website": "http:\/\/www.arccenters.com", "latitude": 38.3154143, "longitude": -83.5364964, "facility type": "Substance Use Treatment" }, "geometry": { "type": "Point", "coordinates": [ -83.5364964, 38.3154143 ] } },
{ "type": "Feature", "properties": { "Name": "Our Lady of Bellefonte Hospital-Bellefonte Behavioral Health Center", "Address": "1000 Saint Christopher Drive, Ashland, KY 41101", "county": "Boyd", "website": "http:\/\/bonsecours.com\/kentucky", "latitude": 38.507931, "longitude": -82.6929628, "facility type": "Substance Use Treatment" }, "geometry": { "type": "Point", "coordinates": [ -82.6929628, 38.507931 ] } },
{ "type": "Feature", "properties": { "Name": "Behavioral Health Group-Berea", "Address": "1000 Ace Drive, Berea, KY 40403", "county": "Madison", "website": "http:\/\/berea.bhgrecovery.com", "latitude": 37.5839846, "longitude": -84.2901301, "facility type": "Substance Use Treatment" }, "geometry": { "type": "Point", "coordinates": [ -84.2901301, 37.5839846 ] } },
{ "type": "Feature", "properties": { "Name": "BHGXXV LLC-BHG Pikeville Treatment Center", "Address": "368 South Mayo Trail, Pikeville, KY 41501", "county": "Pike", "website": "http:\/\/www.bhgrecovery.com", "latitude": 37.4668464, "longitude": -82.5329216, "facility type": "Substance Use Treatment" }, "geometry": { "type": "Point", "coordinates": [ -82.5329216, 37.4668464 ] } },
{ "type": "Feature", "properties": { "Name": "NorthKey Community Care-Boone County Outpatient Services", "Address": "7459 Burlington Pike, Florence, KY 41042", "county": "Boone", "website": "http:\/\/www.northkey.org", "latitude": 38.999872, "longitude": -84.637215, "facility type": "Substance Use Treatment" }, "geometry": { "type": "Point", "coordinates": [ -84.637215, 38.999872 ] } },
{ "type": "Feature", "properties": { "Name": "New Vista-Bourbon County Outpatient Clinic", "Address": "4223 Lexington Road, Suite D, Paris, KY 40361", "county": "Bourbon", "website": "http:\/\/www.newvista.org", "latitude": 38.18568, "longitude": -84.2874006, "facility type": "Substance Use Treatment" }, "geometry": { "type": "Point", "coordinates": [ -84.2874006, 38.18568 ] } },
{ "type": "Feature", "properties": { "Name": "JourneyPure-Bowling Green", "Address": "2349 Russellville Road, Bowling Green, KY 42101", "county": "Warren", "website": "http:\/\/www.journeypurebowlinggreen.com", "latitude": 36.9698852, "longitude": -86.4796137, "facility type": "Substance Use Treatment" }, "geometry": { "type": "Point", "coordinates": [ -86.4796137, 36.9698852 ] } },
{ "type": "Feature", "properties": { "Name": "Pathways Inc-Boyd County Outpatient", "Address": "201 22nd Street, Ashland, KY 41101", "county": "Boyd", "website": "http:\/\/www.pathways-ky.org", "latitude": 38.475787, "longitude": -82.632179, "facility type": "Substance Use Treatment" }, "geometry": { "type": "Point", "coordinates": [ -82.632179, 38.475787 ] } },
{ "type": "Feature", "properties": { "Name": "Pathways Inc-Boyd IOP", "Address": "2165 Winchester Avenue, Ashland, KY 41102", "county": "Boyd", "website": "http:\/\/www.pathways-ky.org", "latitude": 38.4753852, "longitude": -82.632505, "facility type": "Substance Use Treatment" }, "geometry": { "type": "Point", "coordinates": [ -82.632505, 38.4753852 ] } },
{ "type": "Feature", "properties": { "Name": "New Vista-Boyle County Outpatient Clinic", "Address": "650 High Street, Danville, KY 40422", "county": "Boyle", "website": "http:\/\/www.newvista.org", "latitude": 37.6513942, "longitude": -84.7780638, "facility type": "Substance Use Treatment" }, "geometry": { "type": "Point", "coordinates": [ -84.7780638, 37.6513942 ] } },
{ "type": "Feature", "properties": { "Name": "Kentucky River Community Care Inc-Breathitt Outpatient", "Address": "3830 Highway 15 South, Jackson, KY 41339", "county": "Breathitt", "website": "http:\/\/www.krcccares.com", "latitude": 37.508609, "longitude": -83.3414827, "facility type": "Substance Use Treatment" }, "geometry": { "type": "Point", "coordinates": [ -83.3414827, 37.508609 ] } },
{ "type": "Feature", "properties": { "Name": "Centerstone of Kentucky-Bullitt County", "Address": "130 South Joe B Hall Avenue, Shepherdsville, KY 40165", "county": "Bullitt", "website": "http:\/\/www.centerstone.org", "latitude": 37.9875025, "longitude": -85.7112687, "facility type": "Substance Use Treatment" }, "geometry": { "type": "Point", "coordinates": [ -85.7112687, 37.9875025 ] } },
{ "type": "Feature", "properties": { "Name": "LifeSkills Inc-Butler County Office", "Address": "222 Industrial Drive North, Morgantown, KY 42261", "county": "Butler", "website": "http:\/\/www.lifeskills.com", "latitude": 37.2196757, "longitude": -86.7114423, "facility type": "Substance Use Treatment" }, "geometry": { "type": "Point", "coordinates": [ -86.7114423, 37.2196757 ] } },
{ "type": "Feature", "properties": { "Name": "Healing Place-Cambellsville", "Address": "105 Hiestand Farm Road, Campbellsville, KY 42718", "county": "Taylor", "website": "http:\/\/www.thehealingplace.org", "latitude": 37.3480307, "longitude": -85.3757939, "facility type": "Substance Use Treatment" }, "geometry": { "type": "Point", "coordinates": [ -85.3757939, 37.3480307 ] } },
{ "type": "Feature", "properties": { "Name": "NorthKey Community Care-Campbell County Outpatient", "Address": "12 East 5th Street, Newport, KY 41071", "county": "Campbell", "website": "http:\/\/www.northkey.org", "latitude": 39.0916039, "longitude": -84.495114, "facility type": "Substance Use Treatment" }, "geometry": { "type": "Point", "coordinates": [ -84.495114, 39.0916039 ] } },
{ "type": "Feature", "properties": { "Name": "Adanta Group-Campbellsville Clinic", "Address": "250 Water Tower Bypass, Campbellsville, KY 42718", "county": "Taylor", "website": "http:\/\/www.adanta.org", "latitude": 37.3359905, "longitude": -85.3185153, "facility type": "Substance Use Treatment" }, "geometry": { "type": "Point", "coordinates": [ -85.3185153, 37.3359905 ] } },
{ "type": "Feature", "properties": { "Name": "NorthKey Community Care-Carroll County Outpatient Program", "Address": "2688 U.S. Highway 227, Carrollton, KY 41008", "county": "Carroll", "website": "http:\/\/www.northkey.org", "latitude": 38.6548821, "longitude": -85.1316341, "facility type": "Substance Use Treatment" }, "geometry": { "type": "Point", "coordinates": [ -85.1316341, 38.6548821 ] } },
{ "type": "Feature", "properties": { "Name": "Pathways Inc-Carter County Outpatient", "Address": "840 Interstate Drive, Grayson, KY 41143", "county": "Carter", "website": "http:\/\/www.pathways-ky.org", "latitude": 38.34539917, "longitude": -82.93533977, "facility type": "Substance Use Treatment" }, "geometry": { "type": "Point", "coordinates": [ -82.93533977, 38.34539917 ] } },
{ "type": "Feature", "properties": { "Name": "Catalyst Management Inc-Catalyst Behavioral Health", "Address": "321 Ringgold Road, Somerset, KY 42503", "county": "Pulaski", "website": "http:\/\/www.catalystbh.com", "latitude": 37.0942446, "longitude": -84.6324907, "facility type": "Substance Use Treatment" }, "geometry": { "type": "Point", "coordinates": [ -84.6324907, 37.0942446 ] } },
{ "type": "Feature", "properties": { "Name": "Four Rivers Behavioral Health-Center Specialized Addiction Services", "Address": "425 Broadway Street, Suite Lower Level, Paducah, KY 42001", "county": "McCracken", "website": "http:\/\/fourriversmirco.com\/mainsite\/", "latitude": 37.0865373, "longitude": -88.5991733, "facility type": "Substance Use Treatment" }, "geometry": { "type": "Point", "coordinates": [ -88.5991733, 37.0865373 ] } },
{ "type": "Feature", "properties": { "Name": "New Vista Schwartz Center-Chemical Dependency Treatment Center", "Address": "3479 Buckhorn Drive, Suite 106, Lexington, KY 40515", "county": "Fayette", "website": "http:\/\/www.Bluegrass.org", "latitude": 37.9772274, "longitude": -84.458819, "facility type": "Substance Use Treatment" }, "geometry": { "type": "Point", "coordinates": [ -84.458819, 37.9772274 ] } },
{ "type": "Feature", "properties": { "Name": "New Vista-Child and Family Wellness Center", "Address": "1351 Newtown Pike, Building 5, Lexington, KY 40511", "county": "Fayette", "website": "http:\/\/www.newvista.org", "latitude": 38.0827927, "longitude": -84.4925164, "facility type": "Substance Use Treatment" }, "geometry": { "type": "Point", "coordinates": [ -84.4925164, 38.0827927 ] } },
{ "type": "Feature", "properties": { "Name": "Chrysalis House Inc-Chrysalis Court Program", "Address": "120 Chrysalis Court, Lexington, KY 40508", "county": "Fayette", "website": "http:\/\/www.chrysalishouse.org", "latitude": 38.04421515, "longitude": -84.49967849, "facility type": "Substance Use Treatment" }, "geometry": { "type": "Point", "coordinates": [ -84.49967849, 38.04421515 ] } },
{ "type": "Feature", "properties": { "Name": "New Vista-Clark County Outpatient Clinic", "Address": "325 Professional Avenue, Winchester, KY 40391", "county": "Clark", "website": "http:\/\/www.newvista.org", "latitude": 37.9978692, "longitude": -84.1997689, "facility type": "Substance Use Treatment" }, "geometry": { "type": "Point", "coordinates": [ -84.1997689, 37.9978692 ] } },
{ "type": "Feature", "properties": { "Name": "Adanta Behavioral Health Services-Columbia Clinic", "Address": "200 East Frazier Avenue, Columbia, KY 42728", "county": "Adair", "website": "http:\/\/www.adanta.org", "latitude": 37.0990581, "longitude": -85.3085944, "facility type": "Substance Use Treatment" }, "geometry": { "type": "Point", "coordinates": [ -85.3085944, 37.0990581 ] } },
{ "type": "Feature", "properties": { "Name": "Foothills-Community Based Interventions", "Address": "157 North Main Street, Monticello, KY 42633", "county": "Wayne", "website": "http:\/\/www.cbiky.org", "latitude": 36.8315256, "longitude": -84.8480575, "facility type": "Substance Use Treatment" }, "geometry": { "type": "Point", "coordinates": [ -84.8480575, 36.8315256 ] } },
{ "type": "Feature", "properties": { "Name": "WestCare Kentucky-Community Involvement Center", "Address": "108 Main Street, Irvine, KY 40336", "county": "Estill", "website": "http:\/\/www.westcare.com\/", "latitude": 37.6994266, "longitude": -83.9750523, "facility type": "Substance Use Treatment" }, "geometry": { "type": "Point", "coordinates": [ -83.9750523, 37.6994266 ] } },
{ "type": "Feature", "properties": { "Name": "WestCare Kentucky-Community Involvement Center", "Address": "173 Redale Road, Pikeville, KY 41501", "county": "Pike", "website": "http:\/\/www.westcare.com\/", "latitude": 37.4870181, "longitude": -82.5272634, "facility type": "Substance Use Treatment" }, "geometry": { "type": "Point", "coordinates": [ -82.5272634, 37.4870181 ] } },
{ "type": "Feature", "properties": { "Name": "Deaton and Deaton Counseling and-Consulting LLC", "Address": "1030 Burlington Lane, Suite 5, Frankfort, KY 40601", "county": "Franklin", "website": "http:\/\/deatonanddeatoncounselingservice.com\/", "latitude": 38.1511847, "longitude": -84.8937163, "facility type": "Substance Use Treatment" }, "geometry": { "type": "Point", "coordinates": [ -84.8937163, 38.1511847 ] } },
{ "type": "Feature", "properties": { "Name": "Time Out Community Counseling and-Correctional Services", "Address": "103 East South Street, Munfordville, KY 42765", "county": "Hart", "website": "http:\/\/", "latitude": 37.2714306, "longitude": -85.8894432, "facility type": "Substance Use Treatment" }, "geometry": { "type": "Point", "coordinates": [ -85.8894432, 37.2714306 ] } },
{ "type": "Feature", "properties": { "Name": "Time Out Community Counseling and-Correctional Services LLC", "Address": "201 West Main Street Old City, Suite 201, Scottsville, KY 42164", "county": "Allen", "website": "http:\/\/", "latitude": 36.752168, "longitude": -86.179525, "facility type": "Substance Use Treatment" }, "geometry": { "type": "Point", "coordinates": [ -86.179525, 36.752168 ] } },
{ "type": "Feature", "properties": { "Name": "Everlasting Arms Family-Counseling Center", "Address": "129 B Howell Drive, Elizabethtown, KY 42701", "county": "Hardin", "website": "http:\/\/eafcc.com", "latitude": 37.7140065, "longitude": -85.8237188, "facility type": "Substance Use Treatment" }, "geometry": { "type": "Point", "coordinates": [ -85.8237188, 37.7140065 ] } },
{ "type": "Feature", "properties": { "Name": "Sabrina L West LCSW-Counseling Service", "Address": "121 Apple Alley, Hartford, KY 42347", "county": "Ohio", "website": "http:\/\/", "latitude": 37.45163477, "longitude": -86.9086384, "facility type": "Substance Use Treatment" }, "geometry": { "type": "Point", "coordinates": [ -86.9086384, 37.45163477 ] } },
{ "type": "Feature", "properties": { "Name": "Kentucky Alcohol Offenders-Court Program", "Address": "3499 Lansdowne Drive, Lexington, KY 40517", "county": "Fayette", "website": "http:\/\/", "latitude": 37.988616, "longitude": -84.514853, "facility type": "Substance Use Treatment" }, "geometry": { "type": "Point", "coordinates": [ -84.514853, 37.988616 ] } },
{ "type": "Feature", "properties": { "Name": "Shelbyville Comprehensive Treatmnt Ctr-CRC Health Treatment Clinics LLC", "Address": "213 Midland Boulevard, Shelbyville, KY 40065", "county": "Shelby", "website": "http:\/\/www.ShelbyvilleCTC.com", "latitude": 38.2150694, "longitude": -85.2516695, "facility type": "Substance Use Treatment" }, "geometry": { "type": "Point", "coordinates": [ -85.2516695, 38.2150694 ] } },
{ "type": "Feature", "properties": { "Name": "Pathways Inc-Crisis Residential Recovery Unit", "Address": "201 22nd Street, Ashland, KY 41101", "county": "Boyd", "website": "http:\/\/www.pathways-ky.org", "latitude": 38.4758761, "longitude": -82.6320954, "facility type": "Substance Use Treatment" }, "geometry": { "type": "Point", "coordinates": [ -82.6320954, 38.4758761 ] } },
{ "type": "Feature", "properties": { "Name": "Cumberland River Behavioral Health-Crossroads", "Address": "610 American Greeting Road, Corbin, KY 40701", "county": "Whitley", "website": "http:\/\/www.crbhky.org", "latitude": 36.97182764, "longitude": -84.09206646, "facility type": "Substance Use Treatment" }, "geometry": { "type": "Point", "coordinates": [ -84.09206646, 36.97182764 ] } },
{ "type": "Feature", "properties": { "Name": "Transitions Inc-Dayton Health Newborn House", "Address": "925 5th Avenue, Dayton, KY 41074", "county": "Campbell", "website": "http:\/\/www.transitionsky.org", "latitude": 39.114749, "longitude": -84.4668542, "facility type": "Substance Use Treatment" }, "geometry": { "type": "Point", "coordinates": [ -84.4668542, 39.114749 ] } },
{ "type": "Feature", "properties": { "Name": "ABS Lincs KY Inc-DBA Cumberland Hall", "Address": "270 Walton Way, Hopkinsville, KY 42240", "county": "Christian", "website": "http:\/\/www.cumberlandhallhospital.com", "latitude": 36.865601, "longitude": -87.488619, "facility type": "Substance Use Treatment" }, "geometry": { "type": "Point", "coordinates": [ -87.488619, 36.865601 ] } },
{ "type": "Feature", "properties": { "Name": "Methodist Home of Kentucky-DBA Mending Point", "Address": "1115 Ashgrove Road, Nicholasville, KY 40356", "county": "Jessamine", "website": "http:\/\/www.kyumh.org", "latitude": 37.9454071, "longitude": -84.5324849, "facility type": "Substance Use Treatment" }, "geometry": { "type": "Point", "coordinates": [ -84.5324849, 37.9454071 ] } },
{ "type": "Feature", "properties": { "Name": "Crossroads Counseling Services Inc-DBA River View Counseling", "Address": "214 West Main Street, Frankfort, KY 40601", "county": "Franklin", "website": "http:\/\/www.crossroadscounselingky.com\/", "latitude": 38.1982949, "longitude": -84.8766992, "facility type": "Substance Use Treatment" }, "geometry": { "type": "Point", "coordinates": [ -84.8766992, 38.1982949 ] } },
{ "type": "Feature", "properties": { "Name": "New Hope Substance Abuse and-Domestic Violence Interventions Inc", "Address": "205 North 18th Street, Suite 6, Middlesboro, KY 40965", "county": "Bell", "website": "http:\/\/", "latitude": 36.607784, "longitude": -83.71118, "facility type": "Substance Use Treatment" }, "geometry": { "type": "Point", "coordinates": [ -83.71118, 36.607784 ] } },
{ "type": "Feature", "properties": { "Name": "Transitions Inc-Doughtery House\/Outpatient Services", "Address": "1650 Russell Street, Covington, KY 41011", "county": "Kenton", "website": "http:\/\/www.transitionsky.org", "latitude": 39.070497, "longitude": -84.509466, "facility type": "Substance Use Treatment" }, "geometry": { "type": "Point", "coordinates": [ -84.509466, 39.070497 ] } },
{ "type": "Feature", "properties": { "Name": "Recovery Works-Drug and Alcohol", "Address": "3107 Cincinnati Road, Georgetown, KY 40324", "county": "Scott", "website": "http:\/\/www.pinnacletreatment.com", "latitude": 38.3096932, "longitude": -84.5608182, "facility type": "Substance Use Treatment" }, "geometry": { "type": "Point", "coordinates": [ -84.5608182, 38.3096932 ] } },
{ "type": "Feature", "properties": { "Name": "Kentucky River Community Care-Drug Court", "Address": "3367 Highway 199 North, Mayking, KY 41837", "county": "Letcher", "website": "http:\/\/www.krccnet.com", "latitude": 37.1384012, "longitude": -82.7620127, "facility type": "Substance Use Treatment" }, "geometry": { "type": "Point", "coordinates": [ -82.7620127, 37.1384012 ] } },
{ "type": "Feature", "properties": { "Name": "Kentucky River Community Care-Drug Court Services", "Address": "1060 Grand Avenue, Beattyville, KY 41311", "county": "Lee", "website": "http:\/\/www.krccnet.com", "latitude": 37.5843648, "longitude": -83.6968557, "facility type": "Substance Use Treatment" }, "geometry": { "type": "Point", "coordinates": [ -83.6968557, 37.5843648 ] } },
{ "type": "Feature", "properties": { "Name": "Kentucky River Community Care-Drug Court Services", "Address": "28 Firehouse Lane, Hyden, KY 41749", "county": "Leslie", "website": "http:\/\/www.krccnet.com", "latitude": 37.1548731, "longitude": -83.3682691, "facility type": "Substance Use Treatment" }, "geometry": { "type": "Point", "coordinates": [ -83.3682691, 37.1548731 ] } },
{ "type": "Feature", "properties": { "Name": "Kentucky River Community Care-Drug Court Services", "Address": "115 Rockwood Lane, Hazard, KY 41701", "county": "Perry", "website": "http:\/\/www.krccnet.com", "latitude": 37.2818328, "longitude": -83.2257651, "facility type": "Substance Use Treatment" }, "geometry": { "type": "Point", "coordinates": [ -83.2257651, 37.2818328 ] } },
{ "type": "Feature", "properties": { "Name": "Fayette County Counseling and-DUI Services", "Address": "1500 Leestown Road, Bakhaus Building, Suite 180, Lexington, KY 40511", "county": "Fayette", "website": "http:\/\/", "latitude": 38.0655063, "longitude": -84.5244402, "facility type": "Substance Use Treatment" }, "geometry": { "type": "Point", "coordinates": [ -84.5244402, 38.0655063 ] } },
{ "type": "Feature", "properties": { "Name": "Cindy Baird Guidance in Recovery-DUI Services", "Address": "Calhoun Baptist Church, 315 Main Street, Calhoun, KY 42327", "county": "McLean", "website": "http:\/\/", "latitude": 37.5384626, "longitude": -87.2587662, "facility type": "Substance Use Treatment" }, "geometry": { "type": "Point", "coordinates": [ -87.2587662, 37.5384626 ] } },
{ "type": "Feature", "properties": { "Name": "Cindy Baird Guidance in Recovery and-DUI Services", "Address": "135 South Main Street, Greenville, KY 42345", "county": "Muhlenberg", "website": "http:\/\/", "latitude": 37.1999799, "longitude": -87.1789015, "facility type": "Substance Use Treatment" }, "geometry": { "type": "Point", "coordinates": [ -87.1789015, 37.1999799 ] } },
{ "type": "Feature", "properties": { "Name": "Brook Hospital-Dupont", "Address": "1405 Browns Lane, Louisville, KY 40207", "county": "Jefferson", "website": "http:\/\/www.thebrookhospital.com", "latitude": 38.235613, "longitude": -85.627229, "facility type": "Substance Use Treatment" }, "geometry": { "type": "Point", "coordinates": [ -85.627229, 38.235613 ] } },
{ "type": "Feature", "properties": { "Name": "Dave Harmon and Associates Inc-Dupont Professional Towers", "Address": "4010 Dupont Circle, Suite 226, Louisville, KY 40207", "county": "Jefferson", "website": "http:\/\/www.daveharmon.org", "latitude": 38.2332727, "longitude": -85.6300843, "facility type": "Substance Use Treatment" }, "geometry": { "type": "Point", "coordinates": [ -85.6300843, 38.2332727 ] } },
{ "type": "Feature", "properties": { "Name": "Center for Behavioral Health Inc-E Town Addiction Solutions LCC", "Address": "2645 Leitchfield Road, Suite 104, Elizabethtown, KY 42701", "county": "Hardin", "website": "http:\/\/www.centerforbehavioralhealth.com", "latitude": 37.6758654, "longitude": -85.8998197, "facility type": "Substance Use Treatment" }, "geometry": { "type": "Point", "coordinates": [ -85.8998197, 37.6758654 ] } },
{ "type": "Feature", "properties": { "Name": "LifeSkills Inc-Edmonson County Office", "Address": "205 Mohawk Street, Brownsville, KY 42210", "county": "Edmonson", "website": "http:\/\/www.lifeskills.com", "latitude": 37.188939, "longitude": -86.2653445, "facility type": "Substance Use Treatment" }, "geometry": { "type": "Point", "coordinates": [ -86.2653445, 37.188939 ] } },
{ "type": "Feature", "properties": { "Name": "ARC- Addiction Recovery Care-Education and Career Services", "Address": "105-107 East Madison Street, Louisa, KY 41230", "county": "Lawrence", "website": "http:\/\/www.arccenters.com", "latitude": 38.1144954, "longitude": -82.6036869, "facility type": "Substance Use Treatment" }, "geometry": { "type": "Point", "coordinates": [ -82.6036869, 38.1144954 ] } },
{ "type": "Feature", "properties": { "Name": "Methadone\/Opiate Rehabilitation and-Education Center (MORE)", "Address": "1448 South 15th Street, Louisville, KY 40210", "county": "Jefferson", "website": "http:\/\/louisvilleky.gov\/government\/health-wellness\/services\/substance-abuse-treatment-more-center", "latitude": 38.2291311, "longitude": -85.7803199, "facility type": "Substance Use Treatment" }, "geometry": { "type": "Point", "coordinates": [ -85.7803199, 38.2291311 ] } },
{ "type": "Feature", "properties": { "Name": "JourneyPure-Elizabethtown", "Address": "790 North Dixie Avenue, Suite B-100, Elizabethtown, KY 42701", "county": "Hardin", "website": "http:\/\/www.journeypureelizabethtown.com", "latitude": 37.7074894, "longitude": -85.872331, "facility type": "Substance Use Treatment" }, "geometry": { "type": "Point", "coordinates": [ -85.872331, 37.7074894 ] } },
{ "type": "Feature", "properties": { "Name": "Recovery Works-Elizabethtown", "Address": "100 Diecks Drive, Elizabethtown, KY 42701", "county": "Hardin", "website": "http:\/\/rw-elizabethtown.pinnacletreatment.com", "latitude": 37.7107251, "longitude": -85.873576, "facility type": "Substance Use Treatment" }, "geometry": { "type": "Point", "coordinates": [ -85.873576, 37.7107251 ] } },
{ "type": "Feature", "properties": { "Name": "Communicare Inc-Elizabethtown Clinic\/Outpatient Servs", "Address": "1311 North Dixie Highway, Building C, Elizabethtown, KY 42701", "county": "Hardin", "website": "http:\/\/www.communicare.org", "latitude": 37.7216919, "longitude": -85.8798181, "facility type": "Substance Use Treatment" }, "geometry": { "type": "Point", "coordinates": [ -85.8798181, 37.7216919 ] } },
{ "type": "Feature", "properties": { "Name": "Recovery Works-Elizabethtown\/Pinnacle Treatment Ctrs", "Address": "102 Diecks Drive, Elizabethtown, KY 42701", "county": "Hardin", "website": "http:\/\/pinnacletreatment.com", "latitude": 37.7089105, "longitude": -85.8739367, "facility type": "Substance Use Treatment" }, "geometry": { "type": "Point", "coordinates": [ -85.8739367, 37.7089105 ] } },
{ "type": "Feature", "properties": { "Name": "Pathways Inc-Elliott County Outpatient", "Address": "374 North KY State Route 7, Sandy Hook, KY 41171", "county": "Elliott", "website": "http:\/\/www.pathways-ky.org", "latitude": 38.096136, "longitude": -83.123061, "facility type": "Substance Use Treatment" }, "geometry": { "type": "Point", "coordinates": [ -83.123061, 38.096136 ] } },
{ "type": "Feature", "properties": { "Name": "New Vista-Estill County Outpatient Clinic", "Address": "149 Richmond Road, Irvine, KY 40336", "county": "Estill", "website": "http:\/\/www.newvista.org", "latitude": 37.6954165, "longitude": -83.97949, "facility type": "Substance Use Treatment" }, "geometry": { "type": "Point", "coordinates": [ -83.97949, 37.6954165 ] } },
{ "type": "Feature", "properties": { "Name": "Specialized Alternatives for-Families and Youth", "Address": "861 Corporate Drive, Lexington, KY 40503", "county": "Fayette", "website": "http:\/\/www.safy.org", "latitude": 38.0121899, "longitude": -84.552807, "facility type": "Substance Use Treatment" }, "geometry": { "type": "Point", "coordinates": [ -84.552807, 38.0121899 ] } },
{ "type": "Feature", "properties": { "Name": "NorthKey Community Care-Family and Child Outpatient Program", "Address": "722 Scott Street, Covington, KY 41011", "county": "Kenton", "website": "http:\/\/www.northkey.org", "latitude": 39.0830401, "longitude": -84.5077732, "facility type": "Substance Use Treatment" }, "geometry": { "type": "Point", "coordinates": [ -84.5077732, 39.0830401 ] } },
{ "type": "Feature", "properties": { "Name": "New Vista-Fayette County Outpatient Clinic", "Address": "1351 Newtown Pike, Building 5, Lexington, KY 40511", "county": "Fayette", "website": "http:\/\/www.newvista.org", "latitude": 38.0827927, "longitude": -84.4925164, "facility type": "Substance Use Treatment" }, "geometry": { "type": "Point", "coordinates": [ -84.4925164, 38.0827927 ] } },
{ "type": "Feature", "properties": { "Name": "Comprehend Inc-Fleming County CMHC", "Address": "610 Elizaville Road, Flemingsburg, KY 41041", "county": "Fleming", "website": "http:\/\/www.comprehendinc.org", "latitude": 38.4201991, "longitude": -83.7457171, "facility type": "Substance Use Treatment" }, "geometry": { "type": "Point", "coordinates": [ -83.7457171, 38.4201991 ] } },
{ "type": "Feature", "properties": { "Name": "Center for Behavioral Health Inc-Frankfort", "Address": "2225 Lawrenceburg Road, Building C, Frankfort, KY 40601", "county": "Franklin", "website": "http:\/\/www.centerforbehavioralhealth.com", "latitude": 38.1500495, "longitude": -84.8953693, "facility type": "Substance Use Treatment" }, "geometry": { "type": "Point", "coordinates": [ -84.8953693, 38.1500495 ] } },
{ "type": "Feature", "properties": { "Name": "New Vista-Franklin County Outpatient Clinic", "Address": "191 Doctors Drive, Frankfort, KY 40601", "county": "Franklin", "website": "http:\/\/www.newvista.org", "latitude": 38.1611119, "longitude": -84.9081208, "facility type": "Substance Use Treatment" }, "geometry": { "type": "Point", "coordinates": [ -84.9081208, 38.1611119 ] } },
{ "type": "Feature", "properties": { "Name": "Volunteers of America-Freedom House 1", "Address": "1436 South Shelby Street, Louisville, KY 40217", "county": "Jefferson", "website": "http:\/\/www.voamid.org", "latitude": 38.2269708, "longitude": -85.7420671, "facility type": "Substance Use Treatment" }, "geometry": { "type": "Point", "coordinates": [ -85.7420671, 38.2269708 ] } },
{ "type": "Feature", "properties": { "Name": "VOA Recovery-Freedom House 2", "Address": "1432 South Shelby Street, Louisville, KY 40217", "county": "Jefferson", "website": "http:\/\/www.voamid.org\/", "latitude": 38.2274436, "longitude": -85.7420479, "facility type": "Substance Use Treatment" }, "geometry": { "type": "Point", "coordinates": [ -85.7420479, 38.2274436 ] } },
{ "type": "Feature", "properties": { "Name": "NorthKey Community Care-Gallatin County Outpatient Program", "Address": "203 West Main Street, Warsaw, KY 41095", "county": "Gallatin", "website": "http:\/\/www.northkey.org", "latitude": 38.7828175, "longitude": -84.9033297, "facility type": "Substance Use Treatment" }, "geometry": { "type": "Point", "coordinates": [ -84.9033297, 38.7828175 ] } },
{ "type": "Feature", "properties": { "Name": "Pennyroyal Center-Genesis West", "Address": "290 Burley Avenue, Hopkinsville, KY 42240", "county": "Christian", "website": "http:\/\/www.pennyroyalcenter.org", "latitude": 36.8267477, "longitude": -87.5094673, "facility type": "Substance Use Treatment" }, "geometry": { "type": "Point", "coordinates": [ -87.5094673, 36.8267477 ] } },
{ "type": "Feature", "properties": { "Name": "NorthKey Community Care-Grant County Outpatient Services", "Address": "308 Barnes Road, Williamstown, KY 41097", "county": "Grant", "website": "http:\/\/www.northkey.org", "latitude": 38.646849, "longitude": -84.583803, "facility type": "Substance Use Treatment" }, "geometry": { "type": "Point", "coordinates": [ -84.583803, 38.646849 ] } },
{ "type": "Feature", "properties": { "Name": "Family Service-Greater Cinnannti Behav Hlth Servs", "Address": "434 Scott Boluevard, Covington, KY 41011", "county": "Kenton", "website": "http:\/\/www.gcbhs.com\/", "latitude": 39.0863685, "longitude": -84.5088658, "facility type": "Substance Use Treatment" }, "geometry": { "type": "Point", "coordinates": [ -84.5088658, 39.0863685 ] } },
{ "type": "Feature", "properties": { "Name": "Adanta Group-Greensburg Clinic", "Address": "521 Old Hodgensville Road, Greensburg, KY 42743", "county": "Green", "website": "http:\/\/www.adanta.org", "latitude": 37.2675745, "longitude": -85.5082939, "facility type": "Substance Use Treatment" }, "geometry": { "type": "Point", "coordinates": [ -85.5082939, 37.2675745 ] } },
{ "type": "Feature", "properties": { "Name": "Pathways Inc-Greenup County Outpatient", "Address": "57 Dora Lane, Greenup, KY 41144", "county": "Greenup", "website": "http:\/\/www.pathways-ky.org", "latitude": 38.571952, "longitude": -82.836023, "facility type": "Substance Use Treatment" }, "geometry": { "type": "Point", "coordinates": [ -82.836023, 38.571952 ] } },
{ "type": "Feature", "properties": { "Name": "New Vista-Harrison County Outpatient Clinic", "Address": "257 Parkland Heights, Cynthiana, KY 41031", "county": "Harrison", "website": "http:\/\/www.newvista.org", "latitude": 38.3794727, "longitude": -84.2966418, "facility type": "Substance Use Treatment" }, "geometry": { "type": "Point", "coordinates": [ -84.2966418, 38.3794727 ] } },
{ "type": "Feature", "properties": { "Name": "Behavioral Health Group-Hazard Treatment Center", "Address": "48 Independence Drive, Hazard, KY 41701", "county": "Perry", "website": "http:\/\/www.hazard.bhgrecovery.com", "latitude": 37.2842002, "longitude": -83.2262306, "facility type": "Substance Use Treatment" }, "geometry": { "type": "Point", "coordinates": [ -83.2262306, 37.2842002 ] } },
{ "type": "Feature", "properties": { "Name": "ARC-Hazel Hills", "Address": "521 East High Street, Owingsville, KY 40360", "county": "Bath", "website": "http:\/\/www.arccenters.com", "latitude": 38.147453, "longitude": -83.7578007, "facility type": "Substance Use Treatment" }, "geometry": { "type": "Point", "coordinates": [ -83.7578007, 38.147453 ] } },
{ "type": "Feature", "properties": { "Name": "Chrysalis House Inc-Hill Rise Program", "Address": "1588 Hill Rise Drive, Lexington, KY 40504", "county": "Fayette", "website": "http:\/\/www.chrysalishouse.org", "latitude": 38.0470087, "longitude": -84.53142521, "facility type": "Substance Use Treatment" }, "geometry": { "type": "Point", "coordinates": [ -84.53142521, 38.0470087 ] } },
{ "type": "Feature", "properties": { "Name": "Pathways Inc-Hillcrest Hall", "Address": "209 Davis Road, P.O. Box 385, Mount Sterling, KY 40353", "county": "Montgomery", "website": "http:\/\/www.pathways-ky.org\/", "latitude": 37.990214, "longitude": -83.914503, "facility type": "Substance Use Treatment" }, "geometry": { "type": "Point", "coordinates": [ -83.914503, 37.990214 ] } },
{ "type": "Feature", "properties": { "Name": "Mountain Comprehensive Care Center-Hope House", "Address": "2138 East 19th Street, Owensboro, KY 42303", "county": "Daviess", "website": "http:\/\/www.mtcomp.org", "latitude": 37.7595117, "longitude": -87.0838582, "facility type": "Substance Use Treatment" }, "geometry": { "type": "Point", "coordinates": [ -87.0838582, 37.7595117 ] } },
{ "type": "Feature", "properties": { "Name": "Cumberland River Behavioral Health-Independence House", "Address": "3110 Cumberland Falls Highway, Corbin, KY 40701", "county": "Whitley", "website": "http:\/\/www.crbhky.org", "latitude": 36.9146984, "longitude": -84.1409204, "facility type": "Substance Use Treatment" }, "geometry": { "type": "Point", "coordinates": [ -84.1409204, 36.9146984 ] } },
{ "type": "Feature", "properties": { "Name": "West Kentucky Drug and Alcohol -Intervention Services", "Address": "1107 Poplar Street , Benton, KY 42025", "county": "Marshall", "website": "http:\/\/www.wkdaservices.com", "latitude": 36.8576545, "longitude": -88.349657, "facility type": "Substance Use Treatment" }, "geometry": { "type": "Point", "coordinates": [ -88.349657, 36.8576545 ] } },
{ "type": "Feature", "properties": { "Name": "West Kentucky Drug and Alcohol-Intervention Services LLC\/Paducah", "Address": "105 South 6th Street, Paducah, KY 42001", "county": "McCracken", "website": "http:\/\/www.wkdaservices.com", "latitude": 37.0853781, "longitude": -88.6006767, "facility type": "Substance Use Treatment" }, "geometry": { "type": "Point", "coordinates": [ -88.6006767, 37.0853781 ] } },
{ "type": "Feature", "properties": { "Name": "Above and Beyond Counseling-Iroquois Manor Office Building", "Address": "5330 South 3rd Street, Suite 234, Louisville, KY 40214", "county": "Jefferson", "website": "http:\/\/www.aboveandbeyondcounseling.com", "latitude": 38.1711613, "longitude": -85.7686395, "facility type": "Substance Use Treatment" }, "geometry": { "type": "Point", "coordinates": [ -85.7686395, 38.1711613 ] } },
{ "type": "Feature", "properties": { "Name": "Adanta Group-Jamestown Clinic", "Address": "119 Herriford Curve Road, Jamestown, KY 42629", "county": "Russell", "website": "http:\/\/www.adanta.org", "latitude": 37.0115869, "longitude": -85.0750728, "facility type": "Substance Use Treatment" }, "geometry": { "type": "Point", "coordinates": [ -85.0750728, 37.0115869 ] } },
{ "type": "Feature", "properties": { "Name": "New Vista-Jessamine County Outpatient Clinic", "Address": "324 Southview Drive, Nicholasville, KY 40356", "county": "Jessamine", "website": "http:\/\/www.newvista.org", "latitude": 37.8657856, "longitude": -84.5821128, "facility type": "Substance Use Treatment" }, "geometry": { "type": "Point", "coordinates": [ -84.5821128, 37.8657856 ] } },
{ "type": "Feature", "properties": { "Name": "Mountain Comprehensive Care Center-Johnson County Clinic", "Address": "1110 South Mayo Trail, Paintsville, KY 41240", "county": "Johnson", "website": "http:\/\/www.mtcomp.org", "latitude": 37.8057489, "longitude": -82.7988325, "facility type": "Substance Use Treatment" }, "geometry": { "type": "Point", "coordinates": [ -82.7988325, 37.8057489 ] } },
{ "type": "Feature", "properties": { "Name": "Mountain Comprehensive Care Center-Johnson County Community of Hope", "Address": "4800 South KY Route 321, Hagerhill, KY 41222", "county": "Johnson", "website": "http:\/\/www.mtcomp.org\/", "latitude": 37.760061, "longitude": -82.772081, "facility type": "Substance Use Treatment" }, "geometry": { "type": "Point", "coordinates": [ -82.772081, 37.760061 ] } },
{ "type": "Feature", "properties": { "Name": "ARC Counseling Centers-Karens Place", "Address": "2135 Highway 1185, Louisa, KY 41230", "county": "Lawrence", "website": "http:\/\/www.arccenters.com\/karens-place\/", "latitude": 38.1170353, "longitude": -82.6873044, "facility type": "Substance Use Treatment" }, "geometry": { "type": "Point", "coordinates": [ -82.6873044, 38.1170353 ] } },
{ "type": "Feature", "properties": { "Name": "ARC Counseling Centers-Karens Place Maternity Center", "Address": "334 Windy Hill Drive, Louisa, KY 41230", "county": "Lawrence", "website": "http:\/\/www.arccenters.com", "latitude": 38.079374, "longitude": -82.6283558, "facility type": "Substance Use Treatment" }, "geometry": { "type": "Point", "coordinates": [ -82.6283558, 38.079374 ] } },
{ "type": "Feature", "properties": { "Name": "NorthKey Community Care-Kenton County Outpatient Services", "Address": "513 Madison Avenue, Covington, KY 41011", "county": "Kenton", "website": "http:\/\/www.northkey.org", "latitude": 39.085378, "longitude": -84.5110629, "facility type": "Substance Use Treatment" }, "geometry": { "type": "Point", "coordinates": [ -84.5110629, 39.085378 ] } },
{ "type": "Feature", "properties": { "Name": "Brook Hospital-KMI\/Substance Abuse Services", "Address": "8521 LaGrange Road, Louisville, KY 40242", "county": "Jefferson", "website": "http:\/\/www.thebrookhospital.com", "latitude": 38.265706, "longitude": -85.593697, "facility type": "Substance Use Treatment" }, "geometry": { "type": "Point", "coordinates": [ -85.593697, 38.265706 ] } },
{ "type": "Feature", "properties": { "Name": "Kentucky River Community Care Inc-Knott County Outpatient Office", "Address": "3476 West Highway 80, Emmalena, KY 41740", "county": "Knott", "website": "http:\/\/www.krcccares.com", "latitude": 37.3599004, "longitude": -83.0386518, "facility type": "Substance Use Treatment" }, "geometry": { "type": "Point", "coordinates": [ -83.0386518, 37.3599004 ] } },
{ "type": "Feature", "properties": { "Name": "Communicare Inc-KY Moms MATR", "Address": "1311 North Dixie Highway, Building A, Elizabethtown, KY 42701", "county": "Hardin", "website": "http:\/\/www.communicare.org", "latitude": 37.721684, "longitude": -85.8798448, "facility type": "Substance Use Treatment" }, "geometry": { "type": "Point", "coordinates": [ -85.8798448, 37.721684 ] } },
{ "type": "Feature", "properties": { "Name": "Four Rivers Behavioral Health-Lakes Center", "Address": "1051 North 16th Street, Suite B, Murray, KY 42071", "county": "Calloway", "website": "http:\/\/fourriversmirco.com\/mainsite\/", "latitude": 36.6234939, "longitude": -88.3244932, "facility type": "Substance Use Treatment" }, "geometry": { "type": "Point", "coordinates": [ -88.3244932, 36.6234939 ] } },
{ "type": "Feature", "properties": { "Name": "Pathways Inc-Lawrence County Outpatient", "Address": "60 Professional Park Drive, Louisa, KY 41230", "county": "Lawrence", "website": "http:\/\/www.pathways-ky.org", "latitude": 38.09573185, "longitude": -82.67939209, "facility type": "Substance Use Treatment" }, "geometry": { "type": "Point", "coordinates": [ -82.67939209, 38.09573185 ] } },
{ "type": "Feature", "properties": { "Name": "Kentucky River Community Care Inc-Lee Outpatient", "Address": "1060 Grand Avenue, Beattyville, KY 41311", "county": "Lee", "website": "http:\/\/www.krcccares.com", "latitude": 37.5871798, "longitude": -83.6976263, "facility type": "Substance Use Treatment" }, "geometry": { "type": "Point", "coordinates": [ -83.6976263, 37.5871798 ] } },
{ "type": "Feature", "properties": { "Name": "Kentucky River Community Care Inc-Leslie County Outpatient", "Address": "28 Firehouse Lane, Hyden, KY 41749", "county": "Leslie", "website": "http:\/\/www.krcccares.com", "latitude": 37.1548731, "longitude": -83.3682691, "facility type": "Substance Use Treatment" }, "geometry": { "type": "Point", "coordinates": [ -83.3682691, 37.1548731 ] } },
{ "type": "Feature", "properties": { "Name": "Kentucky River Community Care Inc-Letcher County Outpatient Office", "Address": "3367 Highway 119 North, Mayking, KY 41837", "county": "Letcher", "website": "http:\/\/www.krcccares.com", "latitude": 37.1384012, "longitude": -82.7620127, "facility type": "Substance Use Treatment" }, "geometry": { "type": "Point", "coordinates": [ -82.7620127, 37.1384012 ] } },
{ "type": "Feature", "properties": { "Name": "Comprehend Inc-Lewis County CMHC", "Address": "83 2nd Street, Vanceburg, KY 41179", "county": "Lewis", "website": "http:\/\/www.comprehendinc.org", "latitude": 38.5989679, "longitude": -83.3141352, "facility type": "Substance Use Treatment" }, "geometry": { "type": "Point", "coordinates": [ -83.3141352, 38.5989679 ] } },
{ "type": "Feature", "properties": { "Name": "JourneyPure-Lexington", "Address": "1401 Nicholasville Road, Lexington, KY 40503", "county": "Fayette", "website": "http:\/\/www.journeypurelexington.com", "latitude": 38.0271483, "longitude": -84.5114512, "facility type": "Substance Use Treatment" }, "geometry": { "type": "Point", "coordinates": [ -84.5114512, 38.0271483 ] } },
{ "type": "Feature", "properties": { "Name": "Behavioral Health Group-Lexington", "Address": "455 Park Place, Suite 130, Lexington, KY 40511", "county": "Fayette", "website": "http:\/\/bhgrecovery.com\/", "latitude": 38.0698832, "longitude": -84.4821956, "facility type": "Substance Use Treatment" }, "geometry": { "type": "Point", "coordinates": [ -84.4821956, 38.0698832 ] } },
{ "type": "Feature", "properties": { "Name": "ARC Counseling Centers-Lexington Counseling Center", "Address": "3439 Buckhorn Drive, Suite 160, Lexington, KY 40515", "county": "Fayette", "website": "http:\/\/www.arccenters.com", "latitude": 37.977039, "longitude": -84.458233, "facility type": "Substance Use Treatment" }, "geometry": { "type": "Point", "coordinates": [ -84.458233, 37.977039 ] } },
{ "type": "Feature", "properties": { "Name": "Adanta Group-Liberty Clinic", "Address": "322 Middleburg Street, Liberty, KY 42539", "county": "Casey", "website": "http:\/\/www.adanta.org", "latitude": 37.3162483, "longitude": -84.9364769, "facility type": "Substance Use Treatment" }, "geometry": { "type": "Point", "coordinates": [ -84.9364769, 37.3162483 ] } },
{ "type": "Feature", "properties": { "Name": "New Vista-Lincoln County Outpatient Center", "Address": "322 Frontier Boulevard, Stanford, KY 40484", "county": "Lincoln", "website": "http:\/\/", "latitude": 37.5472039, "longitude": -84.6775366, "facility type": "Substance Use Treatment" }, "geometry": { "type": "Point", "coordinates": [ -84.6775366, 37.5472039 ] } },
{ "type": "Feature", "properties": { "Name": "Odyssey Inc-Louisa Counseling Center", "Address": "125 South Main Cross Street, Louisa, KY 41230", "county": "Lawrence", "website": "http:\/\/www.arccenters.com", "latitude": 38.1152206, "longitude": -82.6027999, "facility type": "Substance Use Treatment" }, "geometry": { "type": "Point", "coordinates": [ -82.6027999, 38.1152206 ] } },
{ "type": "Feature", "properties": { "Name": "JourneyPure-Louisville", "Address": "3430 Newburg Road, Suite 208, Louisville, KY 40218", "county": "Jefferson", "website": "http:\/\/louisvilledrugrehab.com", "latitude": 38.1944139, "longitude": -85.6798791, "facility type": "Substance Use Treatment" }, "geometry": { "type": "Point", "coordinates": [ -85.6798791, 38.1944139 ] } },
{ "type": "Feature", "properties": { "Name": "Crossroads Treatment Center of-Louisville PSC", "Address": "1700 Cargo Court, Louisville, KY 40299", "county": "Jefferson", "website": "http:\/\/crossroadstreatmentcenters.com", "latitude": 38.2200186, "longitude": -85.5726672, "facility type": "Substance Use Treatment" }, "geometry": { "type": "Point", "coordinates": [ -85.5726672, 38.2200186 ] } },
{ "type": "Feature", "properties": { "Name": "ARC Counseling Centers-Lydias House", "Address": "185 Maggard Street, Benham, KY 40807", "county": "Harlan", "website": "http:\/\/www.arccenters.com\/", "latitude": 36.9630933, "longitude": -82.9487176, "facility type": "Substance Use Treatment" }, "geometry": { "type": "Point", "coordinates": [ -82.9487176, 36.9630933 ] } },
{ "type": "Feature", "properties": { "Name": "New Vista-Madison County Outpatient Clinic", "Address": "411 Gibson Lane, Richmond, KY 40475", "county": "Madison", "website": "http:\/\/www.newvista.org", "latitude": 37.7337899, "longitude": -84.2866369, "facility type": "Substance Use Treatment" }, "geometry": { "type": "Point", "coordinates": [ -84.2866369, 37.7337899 ] } },
{ "type": "Feature", "properties": { "Name": "Mountain Comprehensive Care Center-Magoffin County Clinic", "Address": "28 Lakeville Road, Salyersville, KY 41465", "county": "Magoffin", "website": "http:\/\/www.mtcomp.org", "latitude": 37.7290768, "longitude": -83.0637216, "facility type": "Substance Use Treatment" }, "geometry": { "type": "Point", "coordinates": [ -83.0637216, 37.7290768 ] } },
{ "type": "Feature", "properties": { "Name": "Mountain Comprehensive Care Center-Martin County Clinic", "Address": "140 Rockcastle Road, Inez, KY 41224", "county": "Martin", "website": "http:\/\/www.mtcomp.org", "latitude": 37.9131178, "longitude": -82.5319234, "facility type": "Substance Use Treatment" }, "geometry": { "type": "Point", "coordinates": [ -82.5319234, 37.9131178 ] } },
{ "type": "Feature", "properties": { "Name": "Chrysalis House Inc-Maxwell Program", "Address": "251 East Maxwell Street, Lexington, KY 40508", "county": "Fayette", "website": "http:\/\/www.chrysalishouse.org", "latitude": 38.04039024, "longitude": -84.497848, "facility type": "Substance Use Treatment" }, "geometry": { "type": "Point", "coordinates": [ -84.497848, 38.04039024 ] } },
{ "type": "Feature", "properties": { "Name": "New Vista-Medication Assisted Recovery (MAR)", "Address": "201 Mechanic Street, First Floor, Lexington, KY 40507", "county": "Fayette", "website": "http:\/\/www.newvista.org", "latitude": 38.0499747, "longitude": -84.4943183, "facility type": "Substance Use Treatment" }, "geometry": { "type": "Point", "coordinates": [ -84.4943183, 38.0499747 ] } },
{ "type": "Feature", "properties": { "Name": "Pathways Inc-Menifee County Outpatient", "Address": "70 Main Street, P.O. Box 284, Frenchburg, KY 40322", "county": "Menifee", "website": "http:\/\/www.pathways-ky.org", "latitude": 37.951506, "longitude": -83.626824, "facility type": "Substance Use Treatment" }, "geometry": { "type": "Point", "coordinates": [ -83.626824, 37.951506 ] } },
{ "type": "Feature", "properties": { "Name": "Healing Place-Mens Detox", "Address": "1020 West Market Street, Louisville, KY 40202", "county": "Jefferson", "website": "http:\/\/www.thehealingplace.org", "latitude": 38.2567121, "longitude": -85.7676834, "facility type": "Substance Use Treatment" }, "geometry": { "type": "Point", "coordinates": [ -85.7676834, 38.2567121 ] } },
{ "type": "Feature", "properties": { "Name": "VOA Recovery-Mens Outpatient Services", "Address": "1436 South Shelby Street, Louisville, KY 40217", "county": "Jefferson", "website": "http:\/\/www.voamid.org", "latitude": 38.2269708, "longitude": -85.7420671, "facility type": "Substance Use Treatment" }, "geometry": { "type": "Point", "coordinates": [ -85.7420671, 38.2269708 ] } },
{ "type": "Feature", "properties": { "Name": "Commitment House-Mens Residential Facility", "Address": "725 New Glendale Road, Elizabethtown, KY 42701", "county": "Hardin", "website": "http:\/\/www.thecommitmenthouse.com", "latitude": 37.6741662, "longitude": -85.8612182, "facility type": "Substance Use Treatment" }, "geometry": { "type": "Point", "coordinates": [ -85.8612182, 37.6741662 ] } },
{ "type": "Feature", "properties": { "Name": "Lifeskills Inc-Metcalfe County Office", "Address": "112 Sartin Drive, Edmonton, KY 42129", "county": "Metcalfe", "website": "http:\/\/www.lifeskills.com", "latitude": 36.9896289, "longitude": -85.6397428, "facility type": "Substance Use Treatment" }, "geometry": { "type": "Point", "coordinates": [ -85.6397428, 36.9896289 ] } },
{ "type": "Feature", "properties": { "Name": "Covington Treatment Center-Metro Treatment of Kentucky LP", "Address": "1450 Madison Avenue, Covington, KY 41011", "county": "Kenton", "website": "http:\/\/newseason.com\/", "latitude": 39.0739811, "longitude": -84.5073008, "facility type": "Substance Use Treatment" }, "geometry": { "type": "Point", "coordinates": [ -84.5073008, 39.0739811 ] } },
{ "type": "Feature", "properties": { "Name": "Pennyroyal Center-MH MR Board\/Caldwell County MH Ctr", "Address": "1350 U.S. Highway 62 West, Princeton, KY 42445", "county": "Caldwell", "website": "http:\/\/www.pennyroyalcenter.org", "latitude": 37.1074029, "longitude": -87.9156678, "facility type": "Substance Use Treatment" }, "geometry": { "type": "Point", "coordinates": [ -87.9156678, 37.1074029 ] } },
{ "type": "Feature", "properties": { "Name": "Pennyroyal Center-MH MR Board\/Substance Abuse Clinic", "Address": "607 Hammond Place, Hopkinsville, KY 42240", "county": "Christian", "website": "http:\/\/www.pennyroyalcenter.org", "latitude": 36.8328236, "longitude": -87.4765297, "facility type": "Substance Use Treatment" }, "geometry": { "type": "Point", "coordinates": [ -87.4765297, 36.8328236 ] } },
{ "type": "Feature", "properties": { "Name": "Pennyroyal Center-MH Servs\/Muhlenberg County MH\/MR Ctr", "Address": "109 South 2nd Street, Central City, KY 42330", "county": "Muhlenberg", "website": "http:\/\/www.pennyroyalcenter.org", "latitude": 37.2930583, "longitude": -87.1234202, "facility type": "Substance Use Treatment" }, "geometry": { "type": "Point", "coordinates": [ -87.1234202, 37.2930583 ] } },
{ "type": "Feature", "properties": { "Name": "Pennyroyal Center-MH\/MR Board", "Address": "200 Clinic Drive, 7th Floor, Madisonville, KY 42431", "county": "Hopkins", "website": "http:\/\/www.pennyroyalcenter.org", "latitude": 37.3383296, "longitude": -87.4937448, "facility type": "Substance Use Treatment" }, "geometry": { "type": "Point", "coordinates": [ -87.4937448, 37.3383296 ] } },
{ "type": "Feature", "properties": { "Name": "LifeSkills Inc-Monroe County Service Center", "Address": "800 North Main Street, Tompkinsville, KY 42167", "county": "Monroe", "website": "http:\/\/www.lifeskills.com", "latitude": 36.7075398, "longitude": -85.6880207, "facility type": "Substance Use Treatment" }, "geometry": { "type": "Point", "coordinates": [ -85.6880207, 36.7075398 ] } },
{ "type": "Feature", "properties": { "Name": "Pathways Inc-Montgomery County Outpatient", "Address": "300 Foxglove Drive, Mount Sterling, KY 40353", "county": "Montgomery", "website": "http:\/\/www.pathways-ky.org", "latitude": 38.0655834, "longitude": -83.95685603, "facility type": "Substance Use Treatment" }, "geometry": { "type": "Point", "coordinates": [ -83.95685603, 38.0655834 ] } },
{ "type": "Feature", "properties": { "Name": "Pathways Inc-Morgan County Outpatient", "Address": "767 North Main Steet, West Liberty, KY 41472", "county": "Morgan", "website": "http:\/\/www.pathways-ky.org", "latitude": 37.92433081, "longitude": -83.2589677, "facility type": "Substance Use Treatment" }, "geometry": { "type": "Point", "coordinates": [ -83.2589677, 37.92433081 ] } },
{ "type": "Feature", "properties": { "Name": "Mountain Center for Recovery and Hope-Mountain Comprehensive Care", "Address": "140 The Landing Lane, Prestonsburg, KY 41653", "county": "Floyd", "website": "http:\/\/www.mtcomp.org\/layne-house-residential-treatment.html", "latitude": 37.7000432, "longitude": -82.7492821, "facility type": "Substance Use Treatment" }, "geometry": { "type": "Point", "coordinates": [ -82.7492821, 37.7000432 ] } },
{ "type": "Feature", "properties": { "Name": "Mountain Center for Recovery and Hope-Mountain Comprehensive Care Center", "Address": "100 The Landing Lane, Prestonsburg, KY 41653", "county": "Floyd", "website": "http:\/\/www.mtcomp.org", "latitude": 37.7000432, "longitude": -82.7492821, "facility type": "Substance Use Treatment" }, "geometry": { "type": "Point", "coordinates": [ -82.7492821, 37.7000432 ] } },
{ "type": "Feature", "properties": { "Name": "Mountain Center for Recovery and Hope-Mountain Comprehensive Care Center", "Address": "160 The Landing Lane, Prestonsburg, KY 41653", "county": "Floyd", "website": "http:\/\/www.mtcomp.org", "latitude": 37.7000432, "longitude": -82.7492821, "facility type": "Substance Use Treatment" }, "geometry": { "type": "Point", "coordinates": [ -82.7492821, 37.7000432 ] } },
{ "type": "Feature", "properties": { "Name": "Mountain Center for Recovery and Hope-Mountain Comprehensive Care Center", "Address": "120 The Landing Lane, Prestonsburg, KY 41653", "county": "Floyd", "website": "http:\/\/www.mtcomp.org", "latitude": 37.7000432, "longitude": -82.7492821, "facility type": "Substance Use Treatment" }, "geometry": { "type": "Point", "coordinates": [ -82.7492821, 37.7000432 ] } },
{ "type": "Feature", "properties": { "Name": "Mountain Center for Recovery and Hope-Mountain Comprehensive Care Center", "Address": "180 The Landing Lane, Prestonsburg, KY 41653", "county": "Floyd", "website": "http:\/\/www.mtcomp.org", "latitude": 37.7032434, "longitude": -82.7486169, "facility type": "Substance Use Treatment" }, "geometry": { "type": "Point", "coordinates": [ -82.7486169, 37.7032434 ] } },
{ "type": "Feature", "properties": { "Name": "Kentucky River Community Care-New Directions", "Address": "115 Rockwood Lane, Hazard, KY 41701", "county": "Perry", "website": "http:\/\/www.krcccnet.com", "latitude": 37.2818328, "longitude": -83.2257651, "facility type": "Substance Use Treatment" }, "geometry": { "type": "Point", "coordinates": [ -83.2257651, 37.2818328 ] } },
{ "type": "Feature", "properties": { "Name": "Kentucky River Community Care-New Directions\/Solutions", "Address": "1060 Grand Avenue, Beattyville, KY 41311", "county": "Lee", "website": "http:\/\/www.krccnet.com", "latitude": 37.5843648, "longitude": -83.6968557, "facility type": "Substance Use Treatment" }, "geometry": { "type": "Point", "coordinates": [ -83.6968557, 37.5843648 ] } },
{ "type": "Feature", "properties": { "Name": "Kentucky River Community Care-New Directions\/Solutions", "Address": "3367 Highway 119 North, Mayking, KY 41837", "county": "Letcher", "website": "http:\/\/www.krccnet.com", "latitude": 37.1384012, "longitude": -82.7620127, "facility type": "Substance Use Treatment" }, "geometry": { "type": "Point", "coordinates": [ -82.7620127, 37.1384012 ] } },
{ "type": "Feature", "properties": { "Name": "Cross Roads Treatment Centers-Northern Kentucky", "Address": "1974 Walton Nicholson Pike, Independence, KY 41051", "county": "Kenton", "website": "http:\/\/www.crossroadstreatmentcenters.com", "latitude": 38.904895, "longitude": -84.550859, "facility type": "Substance Use Treatment" }, "geometry": { "type": "Point", "coordinates": [ -84.550859, 38.904895 ] } },
{ "type": "Feature", "properties": { "Name": "ARC Counseling Centers-Odyssey Counseling Center", "Address": "105 Bruce Professional Park, Suite A, Mount Sterling, KY 40353", "county": "Montgomery", "website": "http:\/\/www.arccenters.com", "latitude": 38.0564679, "longitude": -83.9432555, "facility type": "Substance Use Treatment" }, "geometry": { "type": "Point", "coordinates": [ -83.9432555, 38.0564679 ] } },
{ "type": "Feature", "properties": { "Name": "Centerstone of Kentucky-Oldham", "Address": "2141 Spencer Court, La Grange, KY 40031", "county": "Oldham", "website": "http:\/\/www.centerstoneky.org", "latitude": 38.394027, "longitude": -85.3987772, "facility type": "Substance Use Treatment" }, "geometry": { "type": "Point", "coordinates": [ -85.3987772, 38.394027 ] } },
{ "type": "Feature", "properties": { "Name": "Windows of Discovery-Outpatient", "Address": "389 Waller Avenue, Suite 110, Lexington, KY 40507", "county": "Fayette", "website": "http:\/\/www.windowsofdiscovery.net", "latitude": 38.0307948, "longitude": -84.5194129, "facility type": "Substance Use Treatment" }, "geometry": { "type": "Point", "coordinates": [ -84.5194129, 38.0307948 ] } },
{ "type": "Feature", "properties": { "Name": "Windows of Discovery-Outpatient", "Address": "105 South Broad Street, London, KY 40743", "county": "Laurel", "website": "http:\/\/www.windowsofdiscovery.net", "latitude": 37.1280643, "longitude": -84.0843939, "facility type": "Substance Use Treatment" }, "geometry": { "type": "Point", "coordinates": [ -84.0843939, 37.1280643 ] } },
{ "type": "Feature", "properties": { "Name": "Mountain Comprehensive Care Center-Outpatient", "Address": "104 South Front Avenue, Prestonsburg, KY 41653", "county": "Floyd", "website": "http:\/\/www.mtcomp.org", "latitude": 37.66577827, "longitude": -82.77420878, "facility type": "Substance Use Treatment" }, "geometry": { "type": "Point", "coordinates": [ -82.77420878, 37.66577827 ] } },
{ "type": "Feature", "properties": { "Name": "River Valley Behavioral Health-Outpatient Clinic", "Address": "1100 Walnut Street, Owensboro, KY 42301", "county": "Daviess", "website": "http:\/\/www.RVBH.com", "latitude": 37.7648585, "longitude": -87.1178144, "facility type": "Substance Use Treatment" }, "geometry": { "type": "Point", "coordinates": [ -87.1178144, 37.7648585 ] } },
{ "type": "Feature", "properties": { "Name": "Stepworks of Nicholasville-Outpatient Services", "Address": "151 Coconut Grove Drive, Nicholasville, KY 40356", "county": "Jessamine", "website": "http:\/\/www.stepworks.com", "latitude": 37.8926261, "longitude": -84.566635, "facility type": "Substance Use Treatment" }, "geometry": { "type": "Point", "coordinates": [ -84.566635, 37.8926261 ] } },
{ "type": "Feature", "properties": { "Name": "Stepworks Crowne Pointe-Outpatient Services", "Address": "1111 Crowne Pointe Drive, Elizabethtown, KY 42701", "county": "Hardin", "website": "http:\/\/www.stepworks.com", "latitude": 37.7173071, "longitude": -85.8359791, "facility type": "Substance Use Treatment" }, "geometry": { "type": "Point", "coordinates": [ -85.8359791, 37.7173071 ] } },
{ "type": "Feature", "properties": { "Name": "Kentucky River Community Care-Outpatient Substance Abuse Program", "Address": "115 Rockwood Lane, Hazard, KY 41701", "county": "Perry", "website": "http:\/\/www.krccnet.com", "latitude": 37.2818328, "longitude": -83.2257651, "facility type": "Substance Use Treatment" }, "geometry": { "type": "Point", "coordinates": [ -83.2257651, 37.2818328 ] } },
{ "type": "Feature", "properties": { "Name": "NorthKey Community Care-Owen County Outpatient Program", "Address": "326 Roland Avenue, Owenton, KY 40359", "county": "Owen", "website": "http:\/\/www.northkey.org", "latitude": 38.5415628, "longitude": -84.8411661, "facility type": "Substance Use Treatment" }, "geometry": { "type": "Point", "coordinates": [ -84.8411661, 38.5415628 ] } },
{ "type": "Feature", "properties": { "Name": "JourneyPure -Paducah", "Address": "3229 Coleman Road, Paducah, KY 42001", "county": "McCracken", "website": "http:\/\/paducahrehab.com\/", "latitude": 37.082866, "longitude": -88.6802841, "facility type": "Substance Use Treatment" }, "geometry": { "type": "Point", "coordinates": [ -88.6802841, 37.082866 ] } },
{ "type": "Feature", "properties": { "Name": "Behavioral Health Group-Paducah Treatment Center", "Address": "2705 Olivet Church Road, Paducah, KY 42001", "county": "McCracken", "website": "http:\/\/bhgrecovery.com\/", "latitude": 37.0702217, "longitude": -88.7013027, "facility type": "Substance Use Treatment" }, "geometry": { "type": "Point", "coordinates": [ -88.7013027, 37.0702217 ] } },
{ "type": "Feature", "properties": { "Name": "Behavioral Health Group-Paintsville Treatment Center", "Address": "628 Jefferson Avenue, Paintsville, KY 41240", "county": "Johnson", "website": "http:\/\/paintsville.bhgrecovery.com", "latitude": 37.8097193, "longitude": -82.8010325, "facility type": "Substance Use Treatment" }, "geometry": { "type": "Point", "coordinates": [ -82.8010325, 37.8097193 ] } },
{ "type": "Feature", "properties": { "Name": "LifeSkills Inc-Park Place Recovery Center for Women", "Address": "49 Hillview Drive, Scottsville, KY 42164", "county": "Allen", "website": "http:\/\/www.lifeskills.com", "latitude": 36.7471043, "longitude": -86.1998745, "facility type": "Substance Use Treatment" }, "geometry": { "type": "Point", "coordinates": [ -86.1998745, 36.7471043 ] } },
{ "type": "Feature", "properties": { "Name": "Communicare Inc-Passages Transitional Housing Program", "Address": "615 Westport Road, Elizabethtown, KY 42701", "county": "Hardin", "website": "http:\/\/www.communicare.org", "latitude": 37.7029475, "longitude": -85.8816208, "facility type": "Substance Use Treatment" }, "geometry": { "type": "Point", "coordinates": [ -85.8816208, 37.7029475 ] } },
{ "type": "Feature", "properties": { "Name": "NorthKey Community Care-Pendleton County Outpatient Program", "Address": "320 Mountjoy Street, Falmouth, KY 41040", "county": "Pendleton", "website": "http:\/\/www.northkey.org", "latitude": 38.676737, "longitude": -84.330214, "facility type": "Substance Use Treatment" }, "geometry": { "type": "Point", "coordinates": [ -84.330214, 38.676737 ] } },
{ "type": "Feature", "properties": { "Name": "Andreas Mission for Men-People Who Care Ministries Inc", "Address": "401 South Main Street, Morgantown, KY 42261", "county": "Butler", "website": "http:\/\/www.andreasmission.com", "latitude": 37.220461, "longitude": -86.6873008, "facility type": "Substance Use Treatment" }, "geometry": { "type": "Point", "coordinates": [ -86.6873008, 37.220461 ] } },
{ "type": "Feature", "properties": { "Name": "Kentucky River Community Care Inc-Perry County Outpatient", "Address": "115 Rockwood Lane, Hazard, KY 41701", "county": "Perry", "website": "http:\/\/www.krcccares.com", "latitude": 37.2818328, "longitude": -83.2257651, "facility type": "Substance Use Treatment" }, "geometry": { "type": "Point", "coordinates": [ -83.2257651, 37.2818328 ] } },
{ "type": "Feature", "properties": { "Name": "Mountain Comprehensive Care Center-Pike County Office", "Address": "26229 U.S. Highway 119 North, Suite C, Belfry, KY 41514", "county": "Pike", "website": "http:\/\/www.mtcomp.org", "latitude": 37.63465993, "longitude": -82.26145965000001, "facility type": "Substance Use Treatment" }, "geometry": { "type": "Point", "coordinates": [ -82.26145965, 37.63465993 ] } },
{ "type": "Feature", "properties": { "Name": "Mountain Comprehensive Care Center-Pike County Outpatient Clinic", "Address": "118 River Road, Pikeville, KY 41501", "county": "Pike", "website": "http:\/\/www.mtcomp.org", "latitude": 37.473539, "longitude": -82.525451, "facility type": "Substance Use Treatment" }, "geometry": { "type": "Point", "coordinates": [ -82.525451, 37.473539 ] } },
{ "type": "Feature", "properties": { "Name": "Georgetown Medical-Pinnacle Treatment", "Address": "105 East Side Drive, Georgetown, KY 40324", "county": "Scott", "website": "http:\/\/www.pinnacletreatment.com", "latitude": 38.2128753, "longitude": -84.5469945, "facility type": "Substance Use Treatment" }, "geometry": { "type": "Point", "coordinates": [ -84.5469945, 38.2128753 ] } },
{ "type": "Feature", "properties": { "Name": "Maysville Medical-Pinnacle Treatment", "Address": "152 East 2nd Street, Maysville, KY 41056", "county": "Mason", "website": "http:\/\/www.pinnacletreatment.com", "latitude": 38.6458006, "longitude": -83.7608602, "facility type": "Substance Use Treatment" }, "geometry": { "type": "Point", "coordinates": [ -83.7608602, 38.6458006 ] } },
{ "type": "Feature", "properties": { "Name": "Carrollton Treatment Services-Pinnacle Treatment", "Address": "539 11th Street, Carrollton, KY 41008", "county": "Carroll", "website": "http:\/\/www.pinnacletreatment.com", "latitude": 38.6775815, "longitude": -85.1690301, "facility type": "Substance Use Treatment" }, "geometry": { "type": "Point", "coordinates": [ -85.1690301, 38.6775815 ] } },
{ "type": "Feature", "properties": { "Name": "Simpson Treatment-Pinnacle Treatment", "Address": "2714 Nashville Road, Franklin, KY 42135", "county": "Simpson", "website": "http:\/\/www.pinnacletreatment.com", "latitude": 36.6844033, "longitude": -86.5670569, "facility type": "Substance Use Treatment" }, "geometry": { "type": "Point", "coordinates": [ -86.5670569, 36.6844033 ] } },
{ "type": "Feature", "properties": { "Name": "Daviess Treatment Services-Pinnacle Treatment", "Address": "3032 Highway 144, Owensboro, KY 42303", "county": "Daviess", "website": "http:\/\/www.pinnacletreatment.com", "latitude": 37.7836489, "longitude": -87.074234, "facility type": "Substance Use Treatment" }, "geometry": { "type": "Point", "coordinates": [ -87.074234, 37.7836489 ] } },
{ "type": "Feature", "properties": { "Name": "New Vista-Powell County Outpatient Clinic", "Address": "438 Washington Street, P.O. Box 515, Stanton, KY 40380", "county": "Powell", "website": "http:\/\/www.newvista.org", "latitude": 37.8519764, "longitude": -83.8594578, "facility type": "Substance Use Treatment" }, "geometry": { "type": "Point", "coordinates": [ -83.8594578, 37.8519764 ] } },
{ "type": "Feature", "properties": { "Name": "ARC Counseling Centers-Prestonsburg Counseling Center", "Address": "87 Oakridge Court, Prestonsburg, KY 41653", "county": "Floyd", "website": "http:\/\/www.arccenters.com", "latitude": 37.6902275, "longitude": -82.7843018, "facility type": "Substance Use Treatment" }, "geometry": { "type": "Point", "coordinates": [ -82.7843018, 37.6902275 ] } },
{ "type": "Feature", "properties": { "Name": "Kentucky River Community Care-Project ADDavance", "Address": "91 Little Grapevine Creek Road, Hazard, KY 41701", "county": "Perry", "website": "http:\/\/www.krccnet.com", "latitude": 37.3232575, "longitude": -83.2474712, "facility type": "Substance Use Treatment" }, "geometry": { "type": "Point", "coordinates": [ -83.2474712, 37.3232575 ] } },
{ "type": "Feature", "properties": { "Name": "Centerstone-Project Link", "Address": "600 South Preston Street, Louisville, KY 40202", "county": "Jefferson", "website": "http:\/\/www.centerstoneky.org", "latitude": 38.2474641, "longitude": -85.7476662, "facility type": "Substance Use Treatment" }, "geometry": { "type": "Point", "coordinates": [ -85.7476662, 38.2474641 ] } },
{ "type": "Feature", "properties": { "Name": "Adanta Group-Pulaski Clinic", "Address": "259 Parkers Mills Road, Somerset, KY 42501", "county": "Pulaski", "website": "http:\/\/www.adanta.org", "latitude": 37.0395923, "longitude": -84.6223835, "facility type": "Substance Use Treatment" }, "geometry": { "type": "Point", "coordinates": [ -84.6223835, 37.0395923 ] } },
{ "type": "Feature", "properties": { "Name": "Hope Center-Recovery Program", "Address": "250 West Loudon Avenue, Lexington, KY 40508", "county": "Fayette", "website": "http:\/\/www.hopectr.org", "latitude": 38.0627971, "longitude": -84.4891956, "facility type": "Substance Use Treatment" }, "geometry": { "type": "Point", "coordinates": [ -84.4891956, 38.0627971 ] } },
{ "type": "Feature", "properties": { "Name": "Hope Center-Recovery Program for Women", "Address": "1524 Versailles Road, Lexington, KY 40504", "county": "Fayette", "website": "http:\/\/www.hopectr.org", "latitude": 38.048539, "longitude": -84.530697, "facility type": "Substance Use Treatment" }, "geometry": { "type": "Point", "coordinates": [ -84.530697, 38.048539 ] } },
{ "type": "Feature", "properties": { "Name": "New Vista-Recovery Services for Families", "Address": "1351 Newtown Pike, Building 5, 1st Floor, Lexington, KY 40511", "county": "Fayette", "website": "http:\/\/www.newvista.org", "latitude": 38.0827927, "longitude": -84.4925164, "facility type": "Substance Use Treatment" }, "geometry": { "type": "Point", "coordinates": [ -84.4925164, 38.0827927 ] } },
{ "type": "Feature", "properties": { "Name": "River Valley Behavioral Health-Regional Chemical Dependency Program", "Address": "Cigar Factory Complex, 1100 Walnut Street, Owensboro, KY 42302", "county": "Daviess", "website": "http:\/\/www.rvbh.com", "latitude": 37.7645065, "longitude": -87.1178913, "facility type": "Substance Use Treatment" }, "geometry": { "type": "Point", "coordinates": [ -87.1178913, 37.7645065 ] } },
{ "type": "Feature", "properties": { "Name": "Stepworks of Nicholasville-Residential Treatment Services", "Address": "151 Coconut Grove Drive, Nicholasville, KY 40356", "county": "Jessamine", "website": "http:\/\/www.stepworks.com", "latitude": 37.8926261, "longitude": -84.566635, "facility type": "Substance Use Treatment" }, "geometry": { "type": "Point", "coordinates": [ -84.566635, 37.8926261 ] } },
{ "type": "Feature", "properties": { "Name": "Stepworks Crowne Pointe-Residential Treatment Services", "Address": "1111 Crowne Pointe Drive, Elizabethtown, KY 42701", "county": "Hardin", "website": "http:\/\/www.stepworks.com", "latitude": 37.7173071, "longitude": -85.8359791, "facility type": "Substance Use Treatment" }, "geometry": { "type": "Point", "coordinates": [ -85.8359791, 37.7173071 ] } },
{ "type": "Feature", "properties": { "Name": "Stepworks of Elizabethtown-Residential Treatment Services", "Address": "1207 Woodland Drive, Elizabethtown, KY 42701", "county": "Hardin", "website": "http:\/\/www.stepworks.com", "latitude": 37.7167641, "longitude": -85.8814433, "facility type": "Substance Use Treatment" }, "geometry": { "type": "Point", "coordinates": [ -85.8814433, 37.7167641 ] } },
{ "type": "Feature", "properties": { "Name": "Stepworks of Bowling Green-Residential Treatment Services", "Address": "331 Brookewood Drive, Bowling Green, KY 42101", "county": "Warren", "website": "http:\/\/www.stepworks.com", "latitude": 36.990594, "longitude": -86.5049597, "facility type": "Substance Use Treatment" }, "geometry": { "type": "Point", "coordinates": [ -86.5049597, 36.990594 ] } },
{ "type": "Feature", "properties": { "Name": "Revive Ministries Inc-Revive Life House", "Address": "101 Richmond Avenue, Nicholasville, KY 40356", "county": "Jessamine", "website": "http:\/\/www.revivelifehouse.org\/", "latitude": 37.8831638, "longitude": -84.5714117, "facility type": "Substance Use Treatment" }, "geometry": { "type": "Point", "coordinates": [ -84.5714117, 37.8831638 ] } },
{ "type": "Feature", "properties": { "Name": "Pathways Inc-Rowan County Outpatient", "Address": "325 East Main Street, Morehead, KY 40351", "county": "Rowan", "website": "http:\/\/www.pathways-ky.org", "latitude": 38.18609, "longitude": -83.431703, "facility type": "Substance Use Treatment" }, "geometry": { "type": "Point", "coordinates": [ -83.431703, 38.18609 ] } },
{ "type": "Feature", "properties": { "Name": "ARC Counseling Centers-Sanibel House", "Address": "2206 Walnut Street, Catlettsburg, KY 41129", "county": "Boyd", "website": "http:\/\/www.arccenters.com\/sanibel-house", "latitude": 38.4192193, "longitude": -82.6010185, "facility type": "Substance Use Treatment" }, "geometry": { "type": "Point", "coordinates": [ -82.6010185, 38.4192193 ] } },
{ "type": "Feature", "properties": { "Name": "New Vista-Scott County Outpatient Clinic", "Address": "110 Roach Street, Georgetown, KY 40324", "county": "Scott", "website": "http:\/\/www.newvista.org", "latitude": 38.215189, "longitude": -84.5472402, "facility type": "Substance Use Treatment" }, "geometry": { "type": "Point", "coordinates": [ -84.5472402, 38.215189 ] } },
{ "type": "Feature", "properties": { "Name": "LifeSkills Inc-Scottsville County Service Center", "Address": "512 Bowling Green Road, Scottsville, KY 42164", "county": "Allen", "website": "http:\/\/www.lifeskills.com", "latitude": 36.7551069, "longitude": -86.2007067, "facility type": "Substance Use Treatment" }, "geometry": { "type": "Point", "coordinates": [ -86.2007067, 36.7551069 ] } },
{ "type": "Feature", "properties": { "Name": "Mountain Comprehensive Care Center-Serenity House", "Address": "2555 Blacklog Road, Inez, KY 41224", "county": "Martin", "website": "http:\/\/www.mtcomp.org\/serenity", "latitude": 37.8511139, "longitude": -82.5046156, "facility type": "Substance Use Treatment" }, "geometry": { "type": "Point", "coordinates": [ -82.5046156, 37.8511139 ] } },
{ "type": "Feature", "properties": { "Name": "West Kentucky Drug and Alcohol-Services LLC\/Mayfield", "Address": "1325 U.S. Highway 45 North, Suite C, Mayfield, KY 42066", "county": "Graves", "website": "http:\/\/www.wkdaservices.com", "latitude": 36.7597692, "longitude": -88.6423126, "facility type": "Substance Use Treatment" }, "geometry": { "type": "Point", "coordinates": [ -88.6423126, 36.7597692 ] } },
{ "type": "Feature", "properties": { "Name": "Centerstone Inc-Shelby County", "Address": "250 Alpine Drive, Shelbyville, KY 40065", "county": "Shelby", "website": "http:\/\/www.centerstoneky.org", "latitude": 38.2201396, "longitude": -85.2011474, "facility type": "Substance Use Treatment" }, "geometry": { "type": "Point", "coordinates": [ -85.2011474, 38.2201396 ] } },
{ "type": "Feature", "properties": { "Name": "VOA Recovery-Shelby Mens Recovery Center", "Address": "1436 South Shelby Street, Louisville, KY 40217", "county": "Jefferson", "website": "http:\/\/www.voamid.org", "latitude": 38.2269593, "longitude": -85.7420972, "facility type": "Substance Use Treatment" }, "geometry": { "type": "Point", "coordinates": [ -85.7420972, 38.2269593 ] } },
{ "type": "Feature", "properties": { "Name": "LifeSkills Inc-Simpson County Office", "Address": "1031 Brookhaven Court, Franklin, KY 42134", "county": "Simpson", "website": "http:\/\/www.lifeskills.com", "latitude": 36.7002817, "longitude": -86.5752998, "facility type": "Substance Use Treatment" }, "geometry": { "type": "Point", "coordinates": [ -86.5752998, 36.7002817 ] } },
{ "type": "Feature", "properties": { "Name": "Kentucky River Community Care-Solutions", "Address": "131 Kentucky Highway 15 North, Campton, KY 41301", "county": "Wolfe", "website": "http:\/\/www.krccnet.com", "latitude": 37.728747, "longitude": -83.555316, "facility type": "Substance Use Treatment" }, "geometry": { "type": "Point", "coordinates": [ -83.555316, 37.728747 ] } },
{ "type": "Feature", "properties": { "Name": "Kentucky River Community Care-Solutions", "Address": "3770 Kentucky Highway 15 South, Jackson, KY 41339", "county": "Breathitt", "website": "http:\/\/www.krccnet.com", "latitude": 37.5256089, "longitude": -83.3446194, "facility type": "Substance Use Treatment" }, "geometry": { "type": "Point", "coordinates": [ -83.3446194, 37.5256089 ] } },
{ "type": "Feature", "properties": { "Name": "Kentucky River Community Care-Solutions", "Address": "3476 West Highway 80, Emmalena, KY 41740", "county": "Knott", "website": "http:\/\/www.krccnet.com", "latitude": 37.3599004, "longitude": -83.0386518, "facility type": "Substance Use Treatment" }, "geometry": { "type": "Point", "coordinates": [ -83.0386518, 37.3599004 ] } },
{ "type": "Feature", "properties": { "Name": "Crossroads Treatment Center of-Somerset PSC", "Address": "607 Clifty Street, Somerset, KY 42503", "county": "Pulaski", "website": "http:\/\/www.crossroadstreatmentcenters.com\/opiate-treatment-centers\/kentucky\/somerset\/", "latitude": 37.0976227, "longitude": -84.6175232, "facility type": "Substance Use Treatment" }, "geometry": { "type": "Point", "coordinates": [ -84.6175232, 37.0976227 ] } },
{ "type": "Feature", "properties": { "Name": "Recovery Works-South Shore\/Greenup", "Address": "4632 State Route 1043, South Shore, KY 41175", "county": "Greenup", "website": "http:\/\/pinnacletreatment.com", "latitude": 38.7220052, "longitude": -82.9254671, "facility type": "Substance Use Treatment" }, "geometry": { "type": "Point", "coordinates": [ -82.9254671, 38.7220052 ] } },
{ "type": "Feature", "properties": { "Name": "Centerstone Inc-Spencer County", "Address": "47 West Main Street, Taylorsville, KY 40071", "county": "Spencer", "website": "http:\/\/www.centerstoneky.org", "latitude": 38.0307082, "longitude": -85.3456136, "facility type": "Substance Use Treatment" }, "geometry": { "type": "Point", "coordinates": [ -85.3456136, 38.0307082 ] } },
{ "type": "Feature", "properties": { "Name": "Stepworks Recovery Centers-Stepworks of London", "Address": "3825 Marydell Road, London, KY 40741", "county": "Laurel", "website": "http:\/\/www.stepworks.com", "latitude": 37.0971069, "longitude": -83.8998837, "facility type": "Substance Use Treatment" }, "geometry": { "type": "Point", "coordinates": [ -83.8998837, 37.0971069 ] } },
{ "type": "Feature", "properties": { "Name": "Changed Lives-Substance Abuse Counseling LLC", "Address": "149 Deweese Street, Lexington, KY 40507", "county": "Fayette", "website": "http:\/\/", "latitude": 38.0446455, "longitude": -84.491839, "facility type": "Substance Use Treatment" }, "geometry": { "type": "Point", "coordinates": [ -84.491839, 38.0446455 ] } },
{ "type": "Feature", "properties": { "Name": "Veterans Affairs Medical Center-Substance Abuse Services", "Address": "800 Zorn Avenue, Building 24, Louisville, KY 40206", "county": "Jefferson", "website": "http:\/\/www.louisville.va.gov", "latitude": 38.2702402, "longitude": -85.6969907, "facility type": "Substance Use Treatment" }, "geometry": { "type": "Point", "coordinates": [ -85.6969907, 38.2702402 ] } },
{ "type": "Feature", "properties": { "Name": "Dave Harmon and Associates Inc-The Professional Centre", "Address": "3934 Dixie Highway, Suite 310, Louisville, KY 40216", "county": "Jefferson", "website": "http:\/\/www.daveharmon.org", "latitude": 38.1940576, "longitude": -85.8076049, "facility type": "Substance Use Treatment" }, "geometry": { "type": "Point", "coordinates": [ -85.8076049, 38.1940576 ] } },
{ "type": "Feature", "properties": { "Name": "Transitions Residential-Treatment Facility", "Address": "313 Madison Pike, Erlanger, KY 41018", "county": "Kenton", "website": "http:\/\/www.transitionsky.org", "latitude": 38.9889258, "longitude": -84.5337933, "facility type": "Substance Use Treatment" }, "geometry": { "type": "Point", "coordinates": [ -84.5337933, 38.9889258 ] } },
{ "type": "Feature", "properties": { "Name": "Lincoln Trail Behavioral Health System-United Healthcare of Hardin Inc", "Address": "3909 South Wilson Road, Radcliff, KY 40160", "county": "Hardin", "website": "http:\/\/www.lincolnbehavioral.com", "latitude": 37.7880076, "longitude": -85.9145809, "facility type": "Substance Use Treatment" }, "geometry": { "type": "Point", "coordinates": [ -85.9145809, 37.7880076 ] } },
{ "type": "Feature", "properties": { "Name": "Adanta Group-Wayne County Clinic", "Address": "735 West Columbia Avenue, Monticello, KY 42633", "county": "Wayne", "website": "http:\/\/www.adanta.org", "latitude": 36.8361038, "longitude": -84.8588998, "facility type": "Substance Use Treatment" }, "geometry": { "type": "Point", "coordinates": [ -84.8588998, 36.8361038 ] } },
{ "type": "Feature", "properties": { "Name": "Adanta Group-Whitley City Clinic", "Address": "South Fork Plaza, 90 Medical Lane, Whitley City, KY 42653", "county": "McCreary", "website": "http:\/\/www.adanta.org", "latitude": 36.7338031, "longitude": -84.4719406, "facility type": "Substance Use Treatment" }, "geometry": { "type": "Point", "coordinates": [ -84.4719406, 36.7338031 ] } },
{ "type": "Feature", "properties": { "Name": "Four Rivers Behavioral Health-William H Fuller Resid SA Trt Ctr", "Address": "1525 Cuba Road, Mayfield, KY 42066", "county": "Graves", "website": "http:\/\/www.4rbh.org", "latitude": 36.7205514, "longitude": -88.6346037, "facility type": "Substance Use Treatment" }, "geometry": { "type": "Point", "coordinates": [ -88.6346037, 36.7205514 ] } },
{ "type": "Feature", "properties": { "Name": "Kentucky River Community Care Inc-Wolfe County Medical Plaza", "Address": "131 Kentucky Highway 15 North, Campton, KY 41301", "county": "Wolfe", "website": "http:\/\/www.krcccares.com", "latitude": 37.728747, "longitude": -83.555316, "facility type": "Substance Use Treatment" }, "geometry": { "type": "Point", "coordinates": [ -83.555316, 37.728747 ] } },
{ "type": "Feature", "properties": { "Name": "Kentucky River Community Care Inc-Wolfe County Outpatient", "Address": "129 Kentucky 15 North, Campton, KY 41301", "county": "Wolfe", "website": "http:\/\/www.krcccares.com", "latitude": 37.7311065, "longitude": -83.5525542, "facility type": "Substance Use Treatment" }, "geometry": { "type": "Point", "coordinates": [ -83.5525542, 37.7311065 ] } },
{ "type": "Feature", "properties": { "Name": "Healing Place-Womens Community", "Address": "1503 South 15th Street, Louisville, KY 40210", "county": "Jefferson", "website": "http:\/\/www.thehealingplace.org", "latitude": 38.2265175, "longitude": -85.7798567, "facility type": "Substance Use Treatment" }, "geometry": { "type": "Point", "coordinates": [ -85.7798567, 38.2265175 ] } },
{ "type": "Feature", "properties": { "Name": "Centerstone Inc-Womens Renaissance Center", "Address": "231 Washington Street, Shelbyville, KY 40065", "county": "Shelby", "website": "http:\/\/www.centerstoneky.org", "latitude": 38.2118167, "longitude": -85.2125345, "facility type": "Substance Use Treatment" }, "geometry": { "type": "Point", "coordinates": [ -85.2125345, 38.2118167 ] } },
{ "type": "Feature", "properties": { "Name": "Centerstone-Womens Renaissance Center\/West", "Address": "130 Stonecrest Road, Unit 108, Shelbyville, KY 40065", "county": "Shelby", "website": "http:\/\/www.centerstone.org", "latitude": 38.211031, "longitude": -85.2515078, "facility type": "Substance Use Treatment" }, "geometry": { "type": "Point", "coordinates": [ -85.2515078, 38.211031 ] } },
{ "type": "Feature", "properties": { "Name": "Centerstone Addiction Recovery Center-Womens Residential", "Address": "2210 Tucker Station Road, Louisville, KY 40299", "county": "Jefferson", "website": "http:\/\/www.centerstone.org", "latitude": 38.2102398, "longitude": -85.5291018, "facility type": "Substance Use Treatment" }, "geometry": { "type": "Point", "coordinates": [ -85.5291018, 38.2102398 ] } },
{ "type": "Feature", "properties": { "Name": "Adanta Group-Woodford Clinic", "Address": "125 Big Sink Road, Versailles, KY 40383", "county": "Woodford", "website": "http:\/\/www.adanta.org", "latitude": 38.0605375, "longitude": -84.7194338, "facility type": "Substance Use Treatment" }, "geometry": { "type": "Point", "coordinates": [ -84.7194338, 38.0605375 ] } },
{ "type": "Feature", "properties": { "Name": "Bluegrass Alcohol Counseling of Richmond", "Address": "236 East Main Street, Richmond, KY 40475", "county": "Madison", "website": "http:\/\/", "latitude": 37.7463057, "longitude": -84.2920305, "facility type": "Substance Use Treatment" }, "geometry": { "type": "Point", "coordinates": [ -84.2920305, 37.7463057 ] } },
{ "type": "Feature", "properties": { "Name": "Liberty Place Recovery Center for Women", "Address": "218 Lake Street, Richmond, KY 40475", "county": "Madison", "website": "http:\/\/www.foothillscap.org", "latitude": 37.7426971, "longitude": -84.2770518, "facility type": "Substance Use Treatment" }, "geometry": { "type": "Point", "coordinates": [ -84.2770518, 37.7426971 ] } }
]
}
